[{"id": "lynQoI3w_pzYfHGeuUU-Qg", "alias": "shu-jiao-fu-zhou-new-york-2", "name": "Shu Jiao Fu Zhou", "image_url": "https://s3-media2.fl.yelpcdn.com/bphoto/4ZQs8AW4b_brkU8IYVE8kA/o.jpg", "is_closed": false, "url": "https://www.yelp.com/biz/shu-jiao-fu-zhou-new-york-2?adjust_creative=vRqJPoybBmrapOJofP44Nw&utm_campaign=yelp_api_v3&utm_medium=api_v3_business_search&utm_source=vRqJPoybBmrapOJofP44Nw", "review_count": 1385, "categories": [{"alias": "chinese", "title": "Chinese"}], "rating": 4.5, "coordinates": {"latitude": 40.7174109, "longitude": -73.99210041198651}, "transactions": ["delivery", "pickup"], "price": "$", "location": {"address1": "295 Grand St", "address2": null, "address3": null, "city": "New York", "zip_code": "10002", "country": "US", "state": "NY", "display_address": ["295 Grand St", "New York, NY 10002"]}, "phone": "+12126252532", "display_phone": "(212) 625-2532", "distance": 1343.3361191226115}, {"id": "X8ZS-dgiMIJvhwf9SaDnjw", "alias": "wah-fung-no-1-new-york-2", "name": "Wah Fung No 1", "image_url": "https://s3-media4.fl.yelpcdn.com/bphoto/uO14Qw1yVeNln4z8Pr68aQ/o.jpg", "is_closed": false, "url": "https://www.yelp.com/biz/wah-fung-no-1-new-york-2?adjust_creative=vRqJPoybBmrapOJofP44Nw&utm_campaign=yelp_api_v3&utm_medium=api_v3_business_search&utm_source=vRqJPoybBmrapOJofP44Nw", "review_count": 2081, "categories": [{"alias": "hotdogs", "title": "Fast Food"}, {"alias": "cantonese", "title": "Cantonese"}], "rating": 4.5, "coordinates": {"latitude": 40.71735, "longitude": -73.99457}, "transactions": ["delivery"], "price": "$", "location": {"address1": "79 Chrystie St", "address2": "", "address3": "", "city": "New York", "zip_code": "10002", "country": "US", "state": "NY", "display_address": ["79 Chrystie St", "New York, NY 10002"]}, "phone": "+12129255175", "display_phone": "(212) 925-5175", "distance": 1323.2851807067286}, {"id": "0CjK3esfpFcxIopebzjFxA", "alias": "joes-shanghai-new-york-2", "name": "Joe's Shanghai", "image_url": "https://s3-media2.fl.yelpcdn.com/bphoto/ORdfWyMHOtWoL6bYHotsaA/o.jpg", "is_closed": false, "url": "https://www.yelp.com/biz/joes-shanghai-new-york-2?adjust_creative=vRqJPoybBmrapOJofP44Nw&utm_campaign=yelp_api_v3&utm_medium=api_v3_business_search&utm_source=vRqJPoybBmrapOJofP44Nw", "review_count": 7328, "categories": [{"alias": "shanghainese", "title": "Shanghainese"}, {"alias": "seafood", "title": "Seafood"}, {"alias": "noodles", "title": "Noodles"}], "rating": 3.8, "coordinates": {"latitude": 40.7156608, "longitude": -73.9967012}, "transactions": ["delivery", "pickup"], "price": "$$", "location": {"address1": "46 Bowery St", "address2": "", "address3": "", "city": "New York", "zip_code": "10013", "country": "US", "state": "NY", "display_address": ["46 Bowery St", "New York, NY 10013"]}, "phone": "+12122338888", "display_phone": "(212) 233-8888", "distance": 1153.9482385806896}, {"id": "0dDCDQz7DrKkSvu9h2hcQw", "alias": "chow-house-new-york", "name": "Chow House", "image_url": "https://s3-media3.fl.yelpcdn.com/bphoto/kzeClsI9_2tkHqKScotx1Q/o.jpg", "is_closed": false, "url": "https://www.yelp.com/biz/chow-house-new-york?adjust_creative=vRqJPoybBmrapOJofP44Nw&utm_campaign=yelp_api_v3&utm_medium=api_v3_business_search&utm_source=vRqJPoybBmrapOJofP44Nw", "review_count": 656, "categories": [{"alias": "szechuan", "title": "Szechuan"}, {"alias": "noodles", "title": "Noodles"}, {"alias": "soup", "title": "Soup"}], "rating": 4.4, "coordinates": {"latitude": 40.72915, "longitude": -74.00072}, "transactions": ["restaurant_reservation", "delivery", "pickup"], "price": "$$", "location": {"address1": "181 Bleecker St", "address2": null, "address3": "", "city": "New York", "zip_code": "10012", "country": "US", "state": "NY", "display_address": ["181 Bleecker St", "New York, NY 10012"]}, "phone": "+12128371021", "display_phone": "(212) 837-1021", "distance": 2692.4401801037266}, {"id": "XsXLVWr1UZWVhKThNvNiaA", "alias": "blue-willow-\u591c\u6765\u6e58-new-york-2", "name": "Blue Willow \u591c\u6765\u6e58", "image_url": "https://s3-media2.fl.yelpcdn.com/bphoto/1E59vOqmXZHBlJe0lLBHtA/o.jpg", "is_closed": false, "url": "https://www.yelp.com/biz/blue-willow-%E5%A4%9C%E6%9D%A5%E6%B9%98-new-york-2?adjust_creative=vRqJPoybBmrapOJofP44Nw&utm_campaign=yelp_api_v3&utm_medium=api_v3_business_search&utm_source=vRqJPoybBmrapOJofP44Nw", "review_count": 1083, "categories": [{"alias": "szechuan", "title": "Szechuan"}], "rating": 4.4, "coordinates": {"latitude": 40.76292, "longitude": -73.976546}, "transactions": ["delivery", "pickup"], "location": {"address1": "40 W 56th St", "address2": null, "address3": "", "city": "New York", "zip_code": "10019", "country": "US", "state": "NY", "display_address": ["40 W 56th St", "New York, NY 10019"]}, "phone": "+12122132299", "display_phone": "(212) 213-2299", "distance": 6568.375546008839}, {"id": "4DInnPhOyvXFbYpUdO0SMQ", "alias": "antidote-brooklyn-2", "name": "Antidote", "image_url": "https://s3-media2.fl.yelpcdn.com/bphoto/STJPAfWndkYOz2OAA3PS_g/o.jpg", "is_closed": false, "url": "https://www.yelp.com/biz/antidote-brooklyn-2?adjust_creative=vRqJPoybBmrapOJofP44Nw&utm_campaign=yelp_api_v3&utm_medium=api_v3_business_search&utm_source=vRqJPoybBmrapOJofP44Nw", "review_count": 468, "categories": [{"alias": "cocktailbars", "title": "Cocktail Bars"}, {"alias": "dimsum", "title": "Dim Sum"}, {"alias": "szechuan", "title": "Szechuan"}], "rating": 4.7, "coordinates": {"latitude": 40.714186, "longitude": -73.965493}, "transactions": ["delivery", "pickup"], "price": "$$", "location": {"address1": "66 S 2nd St", "address2": "", "address3": null, "city": "Brooklyn", "zip_code": "11249", "country": "US", "state": "NY", "display_address": ["66 S 2nd St", "Brooklyn, NY 11249"]}, "phone": "+17187822585", "display_phone": "(718) 782-2585", "distance": 2621.165048298043}, {"id": "4FD0TAxe70nb3ngk3sXF9Q", "alias": "uluh-new-york", "name": "Uluh", "image_url": "https://s3-media3.fl.yelpcdn.com/bphoto/ebgBK2Y-BCVzwEZyDmhLsg/o.jpg", "is_closed": false, "url": "https://www.yelp.com/biz/uluh-new-york?adjust_creative=vRqJPoybBmrapOJofP44Nw&utm_campaign=yelp_api_v3&utm_medium=api_v3_business_search&utm_source=vRqJPoybBmrapOJofP44Nw", "review_count": 949, "categories": [{"alias": "tea", "title": "Tea Rooms"}, {"alias": "asianfusion", "title": "Asian Fusion"}, {"alias": "szechuan", "title": "Szechuan"}], "rating": 4.4, "coordinates": {"latitude": 40.729354, "longitude": -73.98665}, "transactions": ["pickup", "restaurant_reservation", "delivery"], "price": "$$$", "location": {"address1": "152 2nd Ave", "address2": "Ste A", "address3": "", "city": "New York", "zip_code": "10003", "country": "US", "state": "NY", "display_address": ["152 2nd Ave", "Ste A", "New York, NY 10003"]}, "phone": "+19172615963", "display_phone": "(917) 261-5963", "distance": 2735.4764270584865}, {"id": "DIwe3i_-OkvfKAHrNDGtSw", "alias": "red-sorghum-\u591c\u5bb4-new-york-2", "name": "Red Sorghum \u591c\u5bb4", "image_url": "https://s3-media2.fl.yelpcdn.com/bphoto/-_1RjAMCOzm6NEmhK4TjPA/o.jpg", "is_closed": false, "url": "https://www.yelp.com/biz/red-sorghum-%E5%A4%9C%E5%AE%B4-new-york-2?adjust_creative=vRqJPoybBmrapOJofP44Nw&utm_campaign=yelp_api_v3&utm_medium=api_v3_business_search&utm_source=vRqJPoybBmrapOJofP44Nw", "review_count": 51, "categories": [{"alias": "szechuan", "title": "Szechuan"}, {"alias": "bars", "title": "Bars"}], "rating": 4.4, "coordinates": {"latitude": 40.74852, "longitude": -73.93789}, "transactions": ["delivery", "pickup"], "location": {"address1": "28-03 Jackson Ave", "address2": null, "address3": "", "city": "New York", "zip_code": "11101", "country": "US", "state": "NY", "display_address": ["28-03 Jackson Ave", "New York, NY 11101"]}, "phone": "+19295452023", "display_phone": "(929) 545-2023", "distance": 6687.82492024252}, {"id": "QaolMEijS7L6eodSneOdng", "alias": "tri-dim-shanghai-west-new-york-3", "name": "Tri Dim Shanghai West", "image_url": "https://s3-media2.fl.yelpcdn.com/bphoto/N-YlevGHM_fG7NI_5xRbzw/o.jpg", "is_closed": false, "url": "https://www.yelp.com/biz/tri-dim-shanghai-west-new-york-3?adjust_creative=vRqJPoybBmrapOJofP44Nw&utm_campaign=yelp_api_v3&utm_medium=api_v3_business_search&utm_source=vRqJPoybBmrapOJofP44Nw", "review_count": 248, "categories": [{"alias": "shanghainese", "title": "Shanghainese"}, {"alias": "szechuan", "title": "Szechuan"}, {"alias": "dimsum", "title": "Dim Sum"}], "rating": 4.1, "coordinates": {"latitude": 40.78412, "longitude": -73.97368}, "transactions": ["restaurant_reservation", "delivery", "pickup"], "price": "$$", "location": {"address1": "467 Columbus Ave", "address2": "", "address3": null, "city": "New York", "zip_code": "10024", "country": "US", "state": "NY", "display_address": ["467 Columbus Ave", "New York, NY 10024"]}, "phone": "+12125851398", "display_phone": "(212) 585-1398", "distance": 8918.952998914996}, {"id": "gNGxh97n0NZgYG1Q_no9Kg", "alias": "potluck-club-new-york-2", "name": "Potluck Club", "image_url": "https://s3-media2.fl.yelpcdn.com/bphoto/QbhMWgf2hTjoPjBcjMc_eA/o.jpg", "is_closed": false, "url": "https://www.yelp.com/biz/potluck-club-new-york-2?adjust_creative=vRqJPoybBmrapOJofP44Nw&utm_campaign=yelp_api_v3&utm_medium=api_v3_business_search&utm_source=vRqJPoybBmrapOJofP44Nw", "review_count": 332, "categories": [{"alias": "chinese", "title": "Chinese"}, {"alias": "asianfusion", "title": "Asian Fusion"}], "rating": 4.4, "coordinates": {"latitude": 40.719566, "longitude": -73.993524}, "transactions": ["delivery", "pickup"], "location": {"address1": "133 Chrystie St", "address2": null, "address3": "", "city": "New York", "zip_code": "10002", "country": "US", "state": "NY", "display_address": ["133 Chrystie St", "New York, NY 10002"]}, "phone": "", "display_phone": "", "distance": 1575.3092793853682}, {"id": "jc7lVTvmYMIK5RNpENtS6w", "alias": "szechuan-mountain-house-new-york-2", "name": "Szechuan Mountain House", "image_url": "https://s3-media3.fl.yelpcdn.com/bphoto/T6RdvGS66N-FV8EnWehx2A/o.jpg", "is_closed": false, "url": "https://www.yelp.com/biz/szechuan-mountain-house-new-york-2?adjust_creative=vRqJPoybBmrapOJofP44Nw&utm_campaign=yelp_api_v3&utm_medium=api_v3_business_search&utm_source=vRqJPoybBmrapOJofP44Nw", "review_count": 726, "categories": [{"alias": "szechuan", "title": "Szechuan"}], "rating": 4.3, "coordinates": {"latitude": 40.72911, "longitude": -73.98858}, "transactions": ["delivery", "pickup"], "price": "$$", "location": {"address1": "23 St Marks Pl", "address2": "", "address3": null, "city": "New York", "zip_code": "10003", "country": "US", "state": "NY", "display_address": ["23 St Marks Pl", "New York, NY 10003"]}, "phone": "+19173883866", "display_phone": "(917) 388-3866", "distance": 2686.6341472633094}, {"id": "wfhMIiMh2A2psCGONOVSlg", "alias": "han-dynasty-new-york", "name": "Han Dynasty", "image_url": "https://s3-media1.fl.yelpcdn.com/bphoto/MHatwA_jkzu921jPN5M4sQ/o.jpg", "is_closed": false, "url": "https://www.yelp.com/biz/han-dynasty-new-york?adjust_creative=vRqJPoybBmrapOJofP44Nw&utm_campaign=yelp_api_v3&utm_medium=api_v3_business_search&utm_source=vRqJPoybBmrapOJofP44Nw", "review_count": 1374, "categories": [{"alias": "szechuan", "title": "Szechuan"}, {"alias": "noodles", "title": "Noodles"}, {"alias": "beerbar", "title": "Beer Bar"}], "rating": 3.9, "coordinates": {"latitude": 40.732072, "longitude": -73.988074}, "transactions": ["delivery", "pickup"], "price": "$$", "location": {"address1": "90 3rd Ave", "address2": "", "address3": "", "city": "New York", "zip_code": "10003", "country": "US", "state": "NY", "display_address": ["90 3rd Ave", "New York, NY 10003"]}, "phone": "+12123908685", "display_phone": "(212) 390-8685", "distance": 3006.833804957513}, {"id": "miYWrEThPPhB7AW0A72WHw", "alias": "silky-kitchen-brooklyn", "name": "Silky Kitchen", "image_url": "https://s3-media1.fl.yelpcdn.com/bphoto/Jf0cTl73sa0qzQLXnfQqYA/o.jpg", "is_closed": false, "url": "https://www.yelp.com/biz/silky-kitchen-brooklyn?adjust_creative=vRqJPoybBmrapOJofP44Nw&utm_campaign=yelp_api_v3&utm_medium=api_v3_business_search&utm_source=vRqJPoybBmrapOJofP44Nw", "review_count": 10, "categories": [{"alias": "chinese", "title": "Chinese"}], "rating": 4.4, "coordinates": {"latitude": 40.692009, "longitude": -73.986618}, "transactions": [], "location": {"address1": "56 Willoughby St", "address2": null, "address3": "", "city": "Brooklyn", "zip_code": "11201", "country": "US", "state": "NY", "display_address": ["56 Willoughby St", "Brooklyn, NY 11201"]}, "phone": "+13475295693", "display_phone": "(347) 529-5693", "distance": 1627.6134187000514}, {"id": "E_Rxnmim6J2ECFtU0QGlsQ", "alias": "uncle-lou-new-york-3", "name": "Uncle Lou", "image_url": "https://s3-media1.fl.yelpcdn.com/bphoto/KwB4-Sfzj4ANu-A3T_M2Ig/o.jpg", "is_closed": false, "url": "https://www.yelp.com/biz/uncle-lou-new-york-3?adjust_creative=vRqJPoybBmrapOJofP44Nw&utm_campaign=yelp_api_v3&utm_medium=api_v3_business_search&utm_source=vRqJPoybBmrapOJofP44Nw", "review_count": 409, "categories": [{"alias": "cantonese", "title": "Cantonese"}], "rating": 4.2, "coordinates": {"latitude": 40.71623, "longitude": -73.99925}, "transactions": [], "price": "$$", "location": {"address1": "73 Mulberry St", "address2": null, "address3": "", "city": "New York", "zip_code": "10013", "country": "US", "state": "NY", "display_address": ["73 Mulberry St", "New York, NY 10013"]}, "phone": "+12129665538", "display_phone": "(212) 966-5538", "distance": 1273.735430898989}, {"id": "aWkekCYI9zNA6xDwYEtYpg", "alias": "golden-wuish-the-duck-house-new-york", "name": "Golden Wuish The Duck House", "image_url": "https://s3-media4.fl.yelpcdn.com/bphoto/iYk9-38mJPWwYaZajB8O7Q/o.jpg", "is_closed": false, "url": "https://www.yelp.com/biz/golden-wuish-the-duck-house-new-york?adjust_creative=vRqJPoybBmrapOJofP44Nw&utm_campaign=yelp_api_v3&utm_medium=api_v3_business_search&utm_source=vRqJPoybBmrapOJofP44Nw", "review_count": 146, "categories": [{"alias": "asianfusion", "title": "Asian Fusion"}, {"alias": "dimsum", "title": "Dim Sum"}, {"alias": "cocktailbars", "title": "Cocktail Bars"}], "rating": 4.3, "coordinates": {"latitude": 40.707324, "longitude": -74.006407}, "transactions": ["delivery", "pickup"], "price": "$$$", "location": {"address1": "6 Platt St", "address2": null, "address3": "", "city": "New York", "zip_code": "10038", "country": "US", "state": "NY", "display_address": ["6 Platt St", "New York, NY 10038"]}, "phone": "+12122739296", "display_phone": "(212) 273-9296", "distance": 1039.4476394728931}, {"id": "OfwZCdhj_75Bt_ml013c2A", "alias": "moon-wok-brooklyn", "name": "Moon Wok", "image_url": "https://s3-media4.fl.yelpcdn.com/bphoto/4IqfjbUMqX9QSNvpTMJLng/o.jpg", "is_closed": false, "url": "https://www.yelp.com/biz/moon-wok-brooklyn?adjust_creative=vRqJPoybBmrapOJofP44Nw&utm_campaign=yelp_api_v3&utm_medium=api_v3_business_search&utm_source=vRqJPoybBmrapOJofP44Nw", "review_count": 9, "categories": [{"alias": "szechuan", "title": "Szechuan"}, {"alias": "dimsum", "title": "Dim Sum"}], "rating": 4.4, "coordinates": {"latitude": 40.6950751, "longitude": -73.9835386}, "transactions": ["delivery", "pickup"], "location": {"address1": "306 Gold St", "address2": "Ste 2C", "address3": "", "city": "Brooklyn", "zip_code": "11201", "country": "US", "state": "NY", "display_address": ["306 Gold St", "Ste 2C", "Brooklyn, NY 11201"]}, "phone": "+13477658822", "display_phone": "(347) 765-8822", "distance": 1466.8027635841881}, {"id": "ejdQq4SvCv-qE7qSYhtVoA", "alias": "mama-lee-williamsburg-brooklyn", "name": "Mama Lee - Williamsburg", "image_url": "https://s3-media3.fl.yelpcdn.com/bphoto/bMOoSrP1tY3D6NLhf4nAUw/o.jpg", "is_closed": false, "url": "https://www.yelp.com/biz/mama-lee-williamsburg-brooklyn?adjust_creative=vRqJPoybBmrapOJofP44Nw&utm_campaign=yelp_api_v3&utm_medium=api_v3_business_search&utm_source=vRqJPoybBmrapOJofP44Nw", "review_count": 46, "categories": [{"alias": "taiwanese", "title": "Taiwanese"}, {"alias": "chinese", "title": "Chinese"}], "rating": 4.4, "coordinates": {"latitude": 40.715591, "longitude": -73.9649236}, "transactions": [], "location": {"address1": "66 Grand St", "address2": "", "address3": "", "city": "Brooklyn", "zip_code": "11249", "country": "US", "state": "NY", "display_address": ["66 Grand St", "Brooklyn, NY 11249"]}, "phone": "+17186839820", "display_phone": "(718) 683-9820", "distance": 2719.8790019412713}, {"id": "iSjPBJRiWqrgxW7ZM3CGig", "alias": "birds-of-a-feather-brooklyn", "name": "Birds of a Feather", "image_url": "https://s3-media3.fl.yelpcdn.com/bphoto/LCpWi2oB64WZJNaTjgmKyA/o.jpg", "is_closed": false, "url": "https://www.yelp.com/biz/birds-of-a-feather-brooklyn?adjust_creative=vRqJPoybBmrapOJofP44Nw&utm_campaign=yelp_api_v3&utm_medium=api_v3_business_search&utm_source=vRqJPoybBmrapOJofP44Nw", "review_count": 650, "categories": [{"alias": "szechuan", "title": "Szechuan"}], "rating": 4.2, "coordinates": {"latitude": 40.71442, "longitude": -73.960441}, "transactions": ["delivery", "pickup"], "price": "$$", "location": {"address1": "191 Grand St", "address2": "", "address3": null, "city": "Brooklyn", "zip_code": "11211", "country": "US", "state": "NY", "display_address": ["191 Grand St", "Brooklyn, NY 11211"]}, "phone": "+17189696800", "display_phone": "(718) 969-6800", "distance": 3012.406485249949}, {"id": "8YWLuLUKj0t_0_Xv06UUtw", "alias": "yes-apothecary-new-york-4", "name": "Ye's Apothecary", "image_url": "https://s3-media1.fl.yelpcdn.com/bphoto/C9kLckBI7NTHBnHV-98qEw/o.jpg", "is_closed": false, "url": "https://www.yelp.com/biz/yes-apothecary-new-york-4?adjust_creative=vRqJPoybBmrapOJofP44Nw&utm_campaign=yelp_api_v3&utm_medium=api_v3_business_search&utm_source=vRqJPoybBmrapOJofP44Nw", "review_count": 536, "categories": [{"alias": "szechuan", "title": "Szechuan"}, {"alias": "speakeasies", "title": "Speakeasies"}], "rating": 4.5, "coordinates": {"latitude": 40.71945, "longitude": -73.9898}, "transactions": [], "price": "$$$", "location": {"address1": "119 Orchard St", "address2": null, "address3": "", "city": "New York", "zip_code": "10002", "country": "US", "state": "NY", "display_address": ["119 Orchard St", "New York, NY 10002"]}, "phone": "", "display_phone": "", "distance": 1602.8275228141238}, {"id": "tFAozE7NNbypnrr5zEt0bQ", "alias": "dim-sum-palace-new-york-16", "name": "Dim Sum Palace", "image_url": "https://s3-media3.fl.yelpcdn.com/bphoto/2Q6QG8hS0zawsuOOLAzlAQ/o.jpg", "is_closed": false, "url": "https://www.yelp.com/biz/dim-sum-palace-new-york-16?adjust_creative=vRqJPoybBmrapOJofP44Nw&utm_campaign=yelp_api_v3&utm_medium=api_v3_business_search&utm_source=vRqJPoybBmrapOJofP44Nw", "review_count": 96, "categories": [{"alias": "dimsum", "title": "Dim Sum"}], "rating": 4.1, "coordinates": {"latitude": 40.714018, "longitude": -73.996122}, "transactions": [], "price": "$$", "location": {"address1": "27 Division St", "address2": "", "address3": null, "city": "New York", "zip_code": "10002", "country": "US", "state": "NY", "display_address": ["27 Division St", "New York, NY 10002"]}, "phone": "+12125874277", "display_phone": "(212) 587-4277", "distance": 960.7926597805414}, {"id": "U2aUFZARLeSMf4RQIxjuTw", "alias": "lucky-house-kitchen-brooklyn", "name": "Lucky House Kitchen", "image_url": "https://s3-media1.fl.yelpcdn.com/bphoto/ls5IAqyt_XsPXkWx6aVn6w/o.jpg", "is_closed": false, "url": "https://www.yelp.com/biz/lucky-house-kitchen-brooklyn?adjust_creative=vRqJPoybBmrapOJofP44Nw&utm_campaign=yelp_api_v3&utm_medium=api_v3_business_search&utm_source=vRqJPoybBmrapOJofP44Nw", "review_count": 135, "categories": [{"alias": "chinese", "title": "Chinese"}], "rating": 4.5, "coordinates": {"latitude": 40.6838402152061, "longitude": -73.9351565390825}, "transactions": [], "price": "$", "location": {"address1": "343 Lewis Ave", "address2": "", "address3": "", "city": "Brooklyn", "zip_code": "11233", "country": "US", "state": "NY", "display_address": ["343 Lewis Ave", "Brooklyn, NY 11233"]}, "phone": "+17184432298", "display_phone": "(718) 443-2298", "distance": 5544.456640284258}, {"id": "oe8GEFE4QLFAKt87y7zcgA", "alias": "very-fresh-noodles-new-york", "name": "Very Fresh Noodles", "image_url": "https://s3-media2.fl.yelpcdn.com/bphoto/gRqfWsSDep7gFKGE4lChBQ/o.jpg", "is_closed": false, "url": "https://www.yelp.com/biz/very-fresh-noodles-new-york?adjust_creative=vRqJPoybBmrapOJofP44Nw&utm_campaign=yelp_api_v3&utm_medium=api_v3_business_search&utm_source=vRqJPoybBmrapOJofP44Nw", "review_count": 1521, "categories": [{"alias": "taiwanese", "title": "Taiwanese"}, {"alias": "chinese", "title": "Chinese"}, {"alias": "noodles", "title": "Noodles"}], "rating": 4.4, "coordinates": {"latitude": 40.74207, "longitude": -74.00565}, "transactions": ["delivery", "pickup"], "price": "$$", "location": {"address1": "409 W 15th St", "address2": null, "address3": "", "city": "New York", "zip_code": "10011", "country": "US", "state": "NY", "display_address": ["409 W 15th St", "New York, NY 10011"]}, "phone": "+13322156161", "display_phone": "(332) 215-6161", "distance": 4183.62631647822}, {"id": "QBW5zCUwDPcj4nNAi2lhpQ", "alias": "breeze-brooklyn", "name": "Breeze", "image_url": "https://s3-media1.fl.yelpcdn.com/bphoto/oHl6AoHXE0aVoVU9MdZ0Og/o.jpg", "is_closed": false, "url": "https://www.yelp.com/biz/breeze-brooklyn?adjust_creative=vRqJPoybBmrapOJofP44Nw&utm_campaign=yelp_api_v3&utm_medium=api_v3_business_search&utm_source=vRqJPoybBmrapOJofP44Nw", "review_count": 20, "categories": [{"alias": "szechuan", "title": "Szechuan"}, {"alias": "dimsum", "title": "Dim Sum"}, {"alias": "cocktailbars", "title": "Cocktail Bars"}], "rating": 4.6, "coordinates": {"latitude": 40.72301295163434, "longitude": -73.95061489999999}, "transactions": ["delivery", "pickup"], "location": {"address1": "595 Manhattan Ave", "address2": null, "address3": "", "city": "Brooklyn", "zip_code": "11222", "country": "US", "state": "NY", "display_address": ["595 Manhattan Ave", "Brooklyn, NY 11222"]}, "phone": "+12127180797", "display_phone": "(212) 718-0797", "distance": 4167.518424812201}, {"id": "bnDfFdiCcPzhuNWUJORvLQ", "alias": "noodle-village-new-york-7", "name": "Noodle Village", "image_url": "https://s3-media4.fl.yelpcdn.com/bphoto/EcoJ1Kz2Uv3tne7lYTNeRA/o.jpg", "is_closed": false, "url": "https://www.yelp.com/biz/noodle-village-new-york-7?adjust_creative=vRqJPoybBmrapOJofP44Nw&utm_campaign=yelp_api_v3&utm_medium=api_v3_business_search&utm_source=vRqJPoybBmrapOJofP44Nw", "review_count": 1422, "categories": [{"alias": "chinese", "title": "Chinese"}, {"alias": "noodles", "title": "Noodles"}], "rating": 3.9, "coordinates": {"latitude": 40.714167, "longitude": -73.998803}, "transactions": ["delivery", "pickup"], "price": "$$", "location": {"address1": "13 Mott St", "address2": "", "address3": "", "city": "New York", "zip_code": "10013", "country": "US", "state": "NY", "display_address": ["13 Mott St", "New York, NY 10013"]}, "phone": "+12122330788", "display_phone": "(212) 233-0788", "distance": 1041.687819907976}, {"id": "SR3w3XVCgpUSwDk4sZzwZQ", "alias": "nai-brother-chinese-sauerkraut-fish-long-island-city", "name": "Nai Brother Chinese Sauerkraut Fish", "image_url": "https://s3-media4.fl.yelpcdn.com/bphoto/uIX6SGDznDEVmsLYhHXMaA/o.jpg", "is_closed": false, "url": "https://www.yelp.com/biz/nai-brother-chinese-sauerkraut-fish-long-island-city?adjust_creative=vRqJPoybBmrapOJofP44Nw&utm_campaign=yelp_api_v3&utm_medium=api_v3_business_search&utm_source=vRqJPoybBmrapOJofP44Nw", "review_count": 45, "categories": [{"alias": "chinese", "title": "Chinese"}], "rating": 4.5, "coordinates": {"latitude": 40.74923, "longitude": -73.93999}, "transactions": ["delivery", "pickup"], "price": "$$", "location": {"address1": "27-17 42nd Rd", "address2": "", "address3": null, "city": "Long Island City", "zip_code": "11101", "country": "US", "state": "NY", "display_address": ["27-17 42nd Rd", "Long Island City, NY 11101"]}, "phone": "", "display_phone": "", "distance": 6688.235388584544}, {"id": "ICNwlgXTrvFrGvaScUp8Ew", "alias": "for-u-new-york", "name": "For U", "image_url": "https://s3-media2.fl.yelpcdn.com/bphoto/E7lqSbMh4rpi1nBXx5bjTw/o.jpg", "is_closed": false, "url": "https://www.yelp.com/biz/for-u-new-york?adjust_creative=vRqJPoybBmrapOJofP44Nw&utm_campaign=yelp_api_v3&utm_medium=api_v3_business_search&utm_source=vRqJPoybBmrapOJofP44Nw", "review_count": 42, "categories": [{"alias": "dimsum", "title": "Dim Sum"}, {"alias": "szechuan", "title": "Szechuan"}, {"alias": "asianfusion", "title": "Asian Fusion"}], "rating": 4.9, "coordinates": {"latitude": 40.73415, "longitude": -73.98633}, "transactions": ["pickup", "restaurant_reservation", "delivery"], "price": "$$", "location": {"address1": "155 3rd Ave", "address2": "", "address3": "", "city": "New York", "zip_code": "10003", "country": "US", "state": "NY", "display_address": ["155 3rd Ave", "New York, NY 10003"]}, "phone": "+16468223530", "display_phone": "(646) 822-3530", "distance": 3268.279822041364}, {"id": "Vbmv3T7hr_owVic5BQXs5w", "alias": "din-soup-dumplings-brooklyn", "name": "Din Soup Dumplings", "image_url": "https://s3-media2.fl.yelpcdn.com/bphoto/HMlvTYvTPSaPxlpQibt3RQ/o.jpg", "is_closed": false, "url": "https://www.yelp.com/biz/din-soup-dumplings-brooklyn?adjust_creative=vRqJPoybBmrapOJofP44Nw&utm_campaign=yelp_api_v3&utm_medium=api_v3_business_search&utm_source=vRqJPoybBmrapOJofP44Nw", "review_count": 227, "categories": [{"alias": "dimsum", "title": "Dim Sum"}, {"alias": "noodles", "title": "Noodles"}], "rating": 4.5, "coordinates": {"latitude": 40.694191, "longitude": -73.992814}, "transactions": ["delivery", "pickup"], "price": "$$", "location": {"address1": "162 Montague St", "address2": "", "address3": null, "city": "Brooklyn", "zip_code": "11201", "country": "US", "state": "NY", "display_address": ["162 Montague St", "Brooklyn, NY 11201"]}, "phone": "+17185503888", "display_phone": "(718) 550-3888", "distance": 1257.7006234406615}, {"id": "x5OLFy0hWH2MWRflRCF1QA", "alias": "nan-xiang-express-brooklyn", "name": "Nan Xiang Express", "image_url": "https://s3-media4.fl.yelpcdn.com/bphoto/OuYHuWy84K2KlcuGd1XlmA/o.jpg", "is_closed": false, "url": "https://www.yelp.com/biz/nan-xiang-express-brooklyn?adjust_creative=vRqJPoybBmrapOJofP44Nw&utm_campaign=yelp_api_v3&utm_medium=api_v3_business_search&utm_source=vRqJPoybBmrapOJofP44Nw", "review_count": 75, "categories": [{"alias": "shanghainese", "title": "Shanghainese"}, {"alias": "dimsum", "title": "Dim Sum"}, {"alias": "noodles", "title": "Noodles"}], "rating": 4.5, "coordinates": {"latitude": 40.714728, "longitude": -73.961372}, "transactions": ["delivery", "pickup"], "price": "$$", "location": {"address1": "167 Grand St", "address2": null, "address3": "", "city": "Brooklyn", "zip_code": "11249", "country": "US", "state": "NY", "display_address": ["167 Grand St", "Brooklyn, NY 11249"]}, "phone": "+13477991078", "display_phone": "(347) 799-1078", "distance": 2962.8795231121862}, {"id": "gDCK63W5_8-tdCCWr92rbw", "alias": "shan-brooklyn-5", "name": "Shan", "image_url": "https://s3-media2.fl.yelpcdn.com/bphoto/Y8NbwQjsmqFb5MbiwGr0tw/o.jpg", "is_closed": false, "url": "https://www.yelp.com/biz/shan-brooklyn-5?adjust_creative=vRqJPoybBmrapOJofP44Nw&utm_campaign=yelp_api_v3&utm_medium=api_v3_business_search&utm_source=vRqJPoybBmrapOJofP44Nw", "review_count": 87, "categories": [{"alias": "cocktailbars", "title": "Cocktail Bars"}, {"alias": "szechuan", "title": "Szechuan"}, {"alias": "noodles", "title": "Noodles"}], "rating": 4.3, "coordinates": {"latitude": 40.68524, "longitude": -73.99133}, "transactions": ["delivery", "pickup"], "location": {"address1": "191 Smith St", "address2": null, "address3": "", "city": "Brooklyn", "zip_code": "11201", "country": "US", "state": "NY", "display_address": ["191 Smith St", "Brooklyn, NY 11201"]}, "phone": "+13472944660", "display_phone": "(347) 294-4660", "distance": 2258.383771130103}, {"id": "hNFe8WhCibrqT4sFcZmAgw", "alias": "kong-sihk-tong-\u6e2f\u98df\u5802-new-york", "name": "Kong Sihk Tong \u6e2f\u98df\u5802", "image_url": "https://s3-media1.fl.yelpcdn.com/bphoto/S9pXbhbanRRNjDg3DffhBQ/o.jpg", "is_closed": false, "url": "https://www.yelp.com/biz/kong-sihk-tong-%E6%B8%AF%E9%A3%9F%E5%A0%82-new-york?adjust_creative=vRqJPoybBmrapOJofP44Nw&utm_campaign=yelp_api_v3&utm_medium=api_v3_business_search&utm_source=vRqJPoybBmrapOJofP44Nw", "review_count": 823, "categories": [{"alias": "chinese", "title": "Chinese"}, {"alias": "hkcafe", "title": "Hong Kong Style Cafe"}], "rating": 4.1, "coordinates": {"latitude": 40.715433714742154, "longitude": -73.9981186386701}, "transactions": ["delivery", "pickup"], "price": "$$", "location": {"address1": "65 Bayard St", "address2": "", "address3": null, "city": "New York", "zip_code": "10013", "country": "US", "state": "NY", "display_address": ["65 Bayard St", "New York, NY 10013"]}, "phone": "+16468506140", "display_phone": "(646) 850-6140", "distance": 1156.5626748255393}, {"id": "Q1TpfbuPwKPFrNFyu-u2_g", "alias": "han-dynasty-brooklyn-2", "name": "Han Dynasty", "image_url": "https://s3-media3.fl.yelpcdn.com/bphoto/vxbMumdu8Q1e3iCxJ2qZfQ/o.jpg", "is_closed": false, "url": "https://www.yelp.com/biz/han-dynasty-brooklyn-2?adjust_creative=vRqJPoybBmrapOJofP44Nw&utm_campaign=yelp_api_v3&utm_medium=api_v3_business_search&utm_source=vRqJPoybBmrapOJofP44Nw", "review_count": 440, "categories": [{"alias": "szechuan", "title": "Szechuan"}, {"alias": "cocktailbars", "title": "Cocktail Bars"}], "rating": 3.7, "coordinates": {"latitude": 40.69128889156491, "longitude": -73.98261035889554}, "transactions": ["delivery", "pickup"], "price": "$$", "location": {"address1": "1 Dekalb Ave", "address2": "", "address3": null, "city": "Brooklyn", "zip_code": "11201", "country": "US", "state": "NY", "display_address": ["1 Dekalb Ave", "Brooklyn, NY 11201"]}, "phone": "+17188580588", "display_phone": "(718) 858-0588", "distance": 1856.803138729253}, {"id": "sRWRA4dcN_NR1JGpuRVouA", "alias": "nan-xiang-xiao-long-bao-manhattan-new-york", "name": "Nan Xiang Xiao Long Bao - Manhattan", "image_url": "https://s3-media3.fl.yelpcdn.com/bphoto/lmcpkjW6fo_uJqBnxxqk4w/o.jpg", "is_closed": false, "url": "https://www.yelp.com/biz/nan-xiang-xiao-long-bao-manhattan-new-york?adjust_creative=vRqJPoybBmrapOJofP44Nw&utm_campaign=yelp_api_v3&utm_medium=api_v3_business_search&utm_source=vRqJPoybBmrapOJofP44Nw", "review_count": 950, "categories": [{"alias": "dimsum", "title": "Dim Sum"}, {"alias": "desserts", "title": "Desserts"}, {"alias": "noodles", "title": "Noodles"}], "rating": 4.6, "coordinates": {"latitude": 40.74822527534694, "longitude": -73.9857786}, "transactions": [], "price": "$$", "location": {"address1": "24 W 33rd St", "address2": null, "address3": "", "city": "New York", "zip_code": "10001", "country": "US", "state": "NY", "display_address": ["24 W 33rd St", "New York, NY 10001"]}, "phone": "+12129703888", "display_phone": "(212) 970-3888", "distance": 4810.765573767907}, {"id": "bVkjBJlAIwKAj9Aw1KVWjA", "alias": "dim-sum-palace-new-york-8", "name": "Dim Sum Palace", "image_url": "https://s3-media4.fl.yelpcdn.com/bphoto/5Dg8lWgTRJ0kIyv5jfqOnw/o.jpg", "is_closed": false, "url": "https://www.yelp.com/biz/dim-sum-palace-new-york-8?adjust_creative=vRqJPoybBmrapOJofP44Nw&utm_campaign=yelp_api_v3&utm_medium=api_v3_business_search&utm_source=vRqJPoybBmrapOJofP44Nw", "review_count": 1750, "categories": [{"alias": "dimsum", "title": "Dim Sum"}, {"alias": "cantonese", "title": "Cantonese"}], "rating": 4.1, "coordinates": {"latitude": 40.76015, "longitude": -73.9893699}, "transactions": ["delivery", "pickup"], "price": "$$", "location": {"address1": "334 W 46th St", "address2": null, "address3": "", "city": "New York", "zip_code": "10036", "country": "US", "state": "NY", "display_address": ["334 W 46th St", "New York, NY 10036"]}, "phone": "+16468611910", "display_phone": "(646) 861-1910", "distance": 6102.3266274330845}, {"id": "SYFLyQAFRFoDURRWafeLKA", "alias": "lin-and-daughters-new-york", "name": "Lin & Daughters", "image_url": "https://s3-media1.fl.yelpcdn.com/bphoto/sMLgTo8owbts5VEMZ0IlXg/o.jpg", "is_closed": false, "url": "https://www.yelp.com/biz/lin-and-daughters-new-york?adjust_creative=vRqJPoybBmrapOJofP44Nw&utm_campaign=yelp_api_v3&utm_medium=api_v3_business_search&utm_source=vRqJPoybBmrapOJofP44Nw", "review_count": 76, "categories": [{"alias": "chinese", "title": "Chinese"}, {"alias": "noodles", "title": "Noodles"}, {"alias": "bubbletea", "title": "Bubble Tea"}], "rating": 4.6, "coordinates": {"latitude": 40.73253, "longitude": -74.00167}, "transactions": ["delivery", "pickup"], "price": "$$", "location": {"address1": "181 West 4th St", "address2": null, "address3": "", "city": "New York", "zip_code": "10014", "country": "US", "state": "NY", "display_address": ["181 West 4th St", "New York, NY 10014"]}, "phone": "+19176450229", "display_phone": "(917) 645-0229", "distance": 3073.9188208274027}, {"id": "utVNm8OfDl_H154lMlcMlA", "alias": "zhongzhong-noodles-brooklyn-brooklyn-3", "name": "Zhongzhong Noodles - Brooklyn", "image_url": "https://s3-media3.fl.yelpcdn.com/bphoto/u8Dy1Hy1pVAW3ifnaBmAWQ/o.jpg", "is_closed": false, "url": "https://www.yelp.com/biz/zhongzhong-noodles-brooklyn-brooklyn-3?adjust_creative=vRqJPoybBmrapOJofP44Nw&utm_campaign=yelp_api_v3&utm_medium=api_v3_business_search&utm_source=vRqJPoybBmrapOJofP44Nw", "review_count": 20, "categories": [{"alias": "chinese", "title": "Chinese"}, {"alias": "noodles", "title": "Noodles"}, {"alias": "ramen", "title": "Ramen"}], "rating": 4.7, "coordinates": {"latitude": 40.69301, "longitude": -73.97198}, "transactions": ["delivery", "pickup"], "location": {"address1": "154 Adelphi St", "address2": null, "address3": "", "city": "Brooklyn", "zip_code": "11205", "country": "US", "state": "NY", "display_address": ["154 Adelphi St", "Brooklyn, NY 11205"]}, "phone": "+13474575690", "display_phone": "(347) 457-5690", "distance": 2344.6716695024493}, {"id": "rPTX2J5KGDkN1QhPD-QOvg", "alias": "bites-of-xian-brooklyn", "name": "Bites of Xi'an", "image_url": "https://s3-media3.fl.yelpcdn.com/bphoto/vwsaURtKHiesJdo4xGkeXw/o.jpg", "is_closed": false, "url": "https://www.yelp.com/biz/bites-of-xian-brooklyn?adjust_creative=vRqJPoybBmrapOJofP44Nw&utm_campaign=yelp_api_v3&utm_medium=api_v3_business_search&utm_source=vRqJPoybBmrapOJofP44Nw", "review_count": 214, "categories": [{"alias": "chinese", "title": "Chinese"}], "rating": 4.3, "coordinates": {"latitude": 40.688006, "longitude": -73.982083}, "transactions": ["delivery"], "price": "$", "location": {"address1": "318 Livingston St", "address2": "", "address3": null, "city": "Brooklyn", "zip_code": "11217", "country": "US", "state": "NY", "display_address": ["318 Livingston St", "Brooklyn, NY 11217"]}, "phone": "+13478896725", "display_phone": "(347) 889-6725", "distance": 2200.589223732798}, {"id": "R26zweQ8-xoZS7iHkXQOvw", "alias": "shanghai-21-new-york-2", "name": "Shanghai 21", "image_url": "https://s3-media2.fl.yelpcdn.com/bphoto/A19R55CW8eX9Z9xkLdC4ew/o.jpg", "is_closed": false, "url": "https://www.yelp.com/biz/shanghai-21-new-york-2?adjust_creative=vRqJPoybBmrapOJofP44Nw&utm_campaign=yelp_api_v3&utm_medium=api_v3_business_search&utm_source=vRqJPoybBmrapOJofP44Nw", "review_count": 2016, "categories": [{"alias": "shanghainese", "title": "Shanghainese"}], "rating": 4.1, "coordinates": {"latitude": 40.71441, "longitude": -73.99902}, "transactions": ["delivery", "pickup"], "price": "$$", "location": {"address1": "21 Mott St", "address2": "", "address3": "", "city": "New York", "zip_code": "10013", "country": "US", "state": "NY", "display_address": ["21 Mott St", "New York, NY 10013"]}, "phone": "+12127666311", "display_phone": "(212) 766-6311", "distance": 1073.6754859131381}, {"id": "83zDAk03lFXkgImgkLhT9w", "alias": "chi-restaurant-and-bar-new-york", "name": "Chi Restaurant & Bar", "image_url": "https://s3-media4.fl.yelpcdn.com/bphoto/i88DTquqvXDMHv6tryKwqQ/o.jpg", "is_closed": false, "url": "https://www.yelp.com/biz/chi-restaurant-and-bar-new-york?adjust_creative=vRqJPoybBmrapOJofP44Nw&utm_campaign=yelp_api_v3&utm_medium=api_v3_business_search&utm_source=vRqJPoybBmrapOJofP44Nw", "review_count": 128, "categories": [{"alias": "bars", "title": "Bars"}, {"alias": "szechuan", "title": "Szechuan"}], "rating": 4.3, "coordinates": {"latitude": 40.75547, "longitude": -73.99439}, "transactions": ["pickup", "restaurant_reservation", "delivery"], "location": {"address1": "492 9th Ave", "address2": null, "address3": "", "city": "New York", "zip_code": "10018", "country": "US", "state": "NY", "display_address": ["492 9th Ave", "New York, NY 10018"]}, "phone": "+12129181470", "display_phone": "(212) 918-1470", "distance": 5561.376962695644}, {"id": "BF5rzGE9OOTOUVH0pjHa5Q", "alias": "shanghai-villa-new-york", "name": "Shanghai Villa", "image_url": "https://s3-media1.fl.yelpcdn.com/bphoto/HEZjufz5I5dzHheoolsFWQ/o.jpg", "is_closed": false, "url": "https://www.yelp.com/biz/shanghai-villa-new-york?adjust_creative=vRqJPoybBmrapOJofP44Nw&utm_campaign=yelp_api_v3&utm_medium=api_v3_business_search&utm_source=vRqJPoybBmrapOJofP44Nw", "review_count": 29, "categories": [{"alias": "shanghainese", "title": "Shanghainese"}], "rating": 4.6, "coordinates": {"latitude": 40.73135, "longitude": -74.00048}, "transactions": ["restaurant_reservation", "delivery", "pickup"], "location": {"address1": "144 West 4th St", "address2": null, "address3": "", "city": "New York", "zip_code": "10012", "country": "US", "state": "NY", "display_address": ["144 West 4th St", "New York, NY 10012"]}, "phone": "+12122607130", "display_phone": "(212) 260-7130", "distance": 2924.4766784994868}, {"id": "h0pRCiJDrCN7tm3VX5tILQ", "alias": "chili-new-york", "name": "CHILI", "image_url": "https://s3-media2.fl.yelpcdn.com/bphoto/kXEGv1n69TKeZuvkQxyKGw/o.jpg", "is_closed": false, "url": "https://www.yelp.com/biz/chili-new-york?adjust_creative=vRqJPoybBmrapOJofP44Nw&utm_campaign=yelp_api_v3&utm_medium=api_v3_business_search&utm_source=vRqJPoybBmrapOJofP44Nw", "review_count": 767, "categories": [{"alias": "szechuan", "title": "Szechuan"}, {"alias": "dimsum", "title": "Dim Sum"}, {"alias": "cocktailbars", "title": "Cocktail Bars"}], "rating": 4.6, "coordinates": {"latitude": 40.75002, "longitude": -73.98215}, "transactions": ["delivery", "pickup"], "price": "$$", "location": {"address1": "13 E 37th St", "address2": null, "address3": "", "city": "New York", "zip_code": "10016", "country": "US", "state": "NY", "display_address": ["13 E 37th St", "New York, NY 10016"]}, "phone": "+16468820666", "display_phone": "(646) 882-0666", "distance": 5071.482498220688}, {"id": "DpfE0gPBXj-aj2pnEh4E2Q", "alias": "wei-williamsburg-brooklyn", "name": "Wei Williamsburg", "image_url": "https://s3-media1.fl.yelpcdn.com/bphoto/zmURXj4k2P0x-BEkxy9jEg/o.jpg", "is_closed": false, "url": "https://www.yelp.com/biz/wei-williamsburg-brooklyn?adjust_creative=vRqJPoybBmrapOJofP44Nw&utm_campaign=yelp_api_v3&utm_medium=api_v3_business_search&utm_source=vRqJPoybBmrapOJofP44Nw", "review_count": 247, "categories": [{"alias": "chinese", "title": "Chinese"}], "rating": 3.8, "coordinates": {"latitude": 40.7107868, "longitude": -73.9542168}, "transactions": ["delivery", "pickup"], "price": "$$", "location": {"address1": "145 Borinquen Pl", "address2": null, "address3": "", "city": "Brooklyn", "zip_code": "11211", "country": "US", "state": "NY", "display_address": ["145 Borinquen Pl", "Brooklyn, NY 11211"]}, "phone": "+17183601908", "display_phone": "(718) 360-1908", "distance": 3461.341384289627}, {"id": "M-odQWSEfsR2mVEw7nKG-g", "alias": "nyonya-new-york", "name": "Nyonya", "image_url": "https://s3-media2.fl.yelpcdn.com/bphoto/YuWC1Gwo7ku4PvD-7mDQnA/o.jpg", "is_closed": false, "url": "https://www.yelp.com/biz/nyonya-new-york?adjust_creative=vRqJPoybBmrapOJofP44Nw&utm_campaign=yelp_api_v3&utm_medium=api_v3_business_search&utm_source=vRqJPoybBmrapOJofP44Nw", "review_count": 2404, "categories": [{"alias": "malaysian", "title": "Malaysian"}, {"alias": "chinese", "title": "Chinese"}], "rating": 3.9, "coordinates": {"latitude": 40.719116974367, "longitude": -73.9968322948353}, "transactions": ["delivery"], "price": "$$", "location": {"address1": "199 Grand St", "address2": "", "address3": "", "city": "New York", "zip_code": "10013", "country": "US", "state": "NY", "display_address": ["199 Grand St", "New York, NY 10013"]}, "phone": "+12123343669", "display_phone": "(212) 334-3669", "distance": 1530.9548401597256}, {"id": "3gqKLANaXNsHZnPDjKrcTg", "alias": "win-son-brooklyn-4", "name": "Win Son", "image_url": "https://s3-media1.fl.yelpcdn.com/bphoto/k_A5xz1D62WcHk4oiUuxlw/o.jpg", "is_closed": false, "url": "https://www.yelp.com/biz/win-son-brooklyn-4?adjust_creative=vRqJPoybBmrapOJofP44Nw&utm_campaign=yelp_api_v3&utm_medium=api_v3_business_search&utm_source=vRqJPoybBmrapOJofP44Nw", "review_count": 782, "categories": [{"alias": "taiwanese", "title": "Taiwanese"}, {"alias": "newamerican", "title": "New American"}], "rating": 4.2, "coordinates": {"latitude": 40.70747, "longitude": -73.94339}, "transactions": ["delivery"], "price": "$$", "location": {"address1": "159 Graham Ave", "address2": null, "address3": "", "city": "Brooklyn", "zip_code": "11206", "country": "US", "state": "NY", "display_address": ["159 Graham Ave", "Brooklyn, NY 11206"]}, "phone": "+13474576010", "display_phone": "(347) 457-6010", "distance": 4288.123697814991}, {"id": "olRNNJCJ2TJvPRmjBiOcGA", "alias": "silky-kitchen-new-york-3", "name": "Silky Kitchen", "image_url": "https://s3-media1.fl.yelpcdn.com/bphoto/YFkv6-Z4Ax0mtwMkIjUDPA/o.jpg", "is_closed": false, "url": "https://www.yelp.com/biz/silky-kitchen-new-york-3?adjust_creative=vRqJPoybBmrapOJofP44Nw&utm_campaign=yelp_api_v3&utm_medium=api_v3_business_search&utm_source=vRqJPoybBmrapOJofP44Nw", "review_count": 298, "categories": [{"alias": "chinese", "title": "Chinese"}, {"alias": "noodles", "title": "Noodles"}], "rating": 4.4, "coordinates": {"latitude": 40.733077, "longitude": -73.988303}, "transactions": ["delivery", "pickup"], "price": "$$", "location": {"address1": "137 E 13th St", "address2": "", "address3": null, "city": "New York", "zip_code": "10003", "country": "US", "state": "NY", "display_address": ["137 E 13th St", "New York, NY 10003"]}, "phone": "+16468500635", "display_phone": "(646) 850-0635", "distance": 3115.122206109242}, {"id": "SG13JvbIW-IpO3hgrTv5_Q", "alias": "p\u00fas\u00f9-brooklyn", "name": "P\u00fas\u00f9", "image_url": "https://s3-media2.fl.yelpcdn.com/bphoto/jLOEI2CBtKUEiWxV_sJMhg/o.jpg", "is_closed": false, "url": "https://www.yelp.com/biz/p%C3%BAs%C3%B9-brooklyn?adjust_creative=vRqJPoybBmrapOJofP44Nw&utm_campaign=yelp_api_v3&utm_medium=api_v3_business_search&utm_source=vRqJPoybBmrapOJofP44Nw", "review_count": 41, "categories": [{"alias": "chinese", "title": "Chinese"}, {"alias": "vegetarian", "title": "Vegetarian"}], "rating": 4.6, "coordinates": {"latitude": 40.713636, "longitude": -73.962177}, "transactions": [], "location": {"address1": "318 Bedford Ave", "address2": "", "address3": null, "city": "Brooklyn", "zip_code": "11249", "country": "US", "state": "NY", "display_address": ["318 Bedford Ave", "Brooklyn, NY 11249"]}, "phone": "+13478895555", "display_phone": "(347) 889-5555", "distance": 2852.257391860368}, {"id": "aZMVSzm1ypJOkRsLVaMUVA", "alias": "new-chin-chin-wu-restaurant-brooklyn", "name": "New Chin Chin Wu Restaurant", "image_url": "https://s3-media4.fl.yelpcdn.com/bphoto/eOJK_5cM3YLOglNaRQZMxw/o.jpg", "is_closed": false, "url": "https://www.yelp.com/biz/new-chin-chin-wu-restaurant-brooklyn?adjust_creative=vRqJPoybBmrapOJofP44Nw&utm_campaign=yelp_api_v3&utm_medium=api_v3_business_search&utm_source=vRqJPoybBmrapOJofP44Nw", "review_count": 10, "categories": [{"alias": "chinese", "title": "Chinese"}], "rating": 4.3, "coordinates": {"latitude": 40.64904, "longitude": -73.96446}, "transactions": [], "location": {"address1": "1615 Church Ave", "address2": "", "address3": "", "city": "Brooklyn", "zip_code": "11226", "country": "US", "state": "NY", "display_address": ["1615 Church Ave", "Brooklyn, NY 11226"]}, "phone": "+17188568656", "display_phone": "(718) 856-8656", "distance": 6754.291450378761}, {"id": "Nv4eUOdWQ-GdShMUgffMlA", "alias": "roseli-chinese-restaurant-brooklyn", "name": "Roseli Chinese Restaurant", "image_url": "https://s3-media2.fl.yelpcdn.com/bphoto/tHE6Vr1UJoj5ilMUuuzzLA/o.jpg", "is_closed": false, "url": "https://www.yelp.com/biz/roseli-chinese-restaurant-brooklyn?adjust_creative=vRqJPoybBmrapOJofP44Nw&utm_campaign=yelp_api_v3&utm_medium=api_v3_business_search&utm_source=vRqJPoybBmrapOJofP44Nw", "review_count": 5, "categories": [{"alias": "chinese", "title": "Chinese"}], "rating": 5.0, "coordinates": {"latitude": 40.691481, "longitude": -73.984659}, "transactions": ["pickup", "restaurant_reservation", "delivery"], "location": {"address1": "228 Duffield St", "address2": null, "address3": "", "city": "Brooklyn", "zip_code": "11201", "country": "US", "state": "NY", "display_address": ["228 Duffield St", "Brooklyn, NY 11201"]}, "phone": "+19293878200", "display_phone": "(929) 387-8200", "distance": 1750.5298407992111}, {"id": "_keKJLEBW07bK7Jd6ikvAw", "alias": "hay-hay-roasted-new-york-2", "name": "Hay Hay Roasted", "image_url": "https://s3-media2.fl.yelpcdn.com/bphoto/xLIzencnKkAQYtJVn38UHg/o.jpg", "is_closed": false, "url": "https://www.yelp.com/biz/hay-hay-roasted-new-york-2?adjust_creative=vRqJPoybBmrapOJofP44Nw&utm_campaign=yelp_api_v3&utm_medium=api_v3_business_search&utm_source=vRqJPoybBmrapOJofP44Nw", "review_count": 32, "categories": [{"alias": "chinese", "title": "Chinese"}], "rating": 4.5, "coordinates": {"latitude": 40.72908, "longitude": -73.98446}, "transactions": ["delivery", "pickup"], "location": {"address1": "167 1st Ave", "address2": "", "address3": null, "city": "New York", "zip_code": "10003", "country": "US", "state": "NY", "display_address": ["167 1st Ave", "New York, NY 10003"]}, "phone": "+12123811612", "display_phone": "(212) 381-1612", "distance": 2755.151366744639}, {"id": "cOtB9fWWLrbaBebZDjJquQ", "alias": "dunhuang-miss-noodles-brooklyn", "name": "DunHuang Miss Noodles", "image_url": "https://s3-media1.fl.yelpcdn.com/bphoto/2M6Rnaoh1YQ-CA2Qzgyp9Q/o.jpg", "is_closed": false, "url": "https://www.yelp.com/biz/dunhuang-miss-noodles-brooklyn?adjust_creative=vRqJPoybBmrapOJofP44Nw&utm_campaign=yelp_api_v3&utm_medium=api_v3_business_search&utm_source=vRqJPoybBmrapOJofP44Nw", "review_count": 93, "categories": [{"alias": "chinese", "title": "Chinese"}, {"alias": "noodles", "title": "Noodles"}, {"alias": "asianfusion", "title": "Asian Fusion"}], "rating": 4.2, "coordinates": {"latitude": 40.693868137768895, "longitude": -73.9634565145772}, "transactions": ["delivery", "pickup"], "location": {"address1": "531 Myrtle Ave", "address2": null, "address3": "", "city": "Brooklyn", "zip_code": "11205", "country": "US", "state": "NY", "display_address": ["531 Myrtle Ave", "Brooklyn, NY 11205"]}, "phone": "+17187893530", "display_phone": "(718) 789-3530", "distance": 2900.8291200464364}, {"id": "BNaveJmi-OUGKG9sRfrIhA", "alias": "mr-sun-new-york", "name": "Mr. Sun", "image_url": "https://s3-media2.fl.yelpcdn.com/bphoto/jswYzFLbD07Xk8dR81_mIA/o.jpg", "is_closed": false, "url": "https://www.yelp.com/biz/mr-sun-new-york?adjust_creative=vRqJPoybBmrapOJofP44Nw&utm_campaign=yelp_api_v3&utm_medium=api_v3_business_search&utm_source=vRqJPoybBmrapOJofP44Nw", "review_count": 280, "categories": [{"alias": "dimsum", "title": "Dim Sum"}, {"alias": "seafood", "title": "Seafood"}], "rating": 4.3, "coordinates": {"latitude": 40.75809, "longitude": -73.98026}, "transactions": ["pickup", "restaurant_reservation", "delivery"], "price": "$$", "location": {"address1": "48 W 48th St", "address2": "", "address3": null, "city": "New York", "zip_code": "10036", "country": "US", "state": "NY", "display_address": ["48 W 48th St", "New York, NY 10036"]}, "phone": "+17183169811", "display_phone": "(718) 316-9811", "distance": 5959.214395061453}]