[{"id": "_7BGw3YFNOTzP1Www3zB7g", "alias": "mughlai-grill-new-york", "name": "Mughlai Grill", "image_url": "https://s3-media3.fl.yelpcdn.com/bphoto/R0MIGOkyV5I4sDlZLRVK3A/o.jpg", "is_closed": false, "url": "https://www.yelp.com/biz/mughlai-grill-new-york?adjust_creative=vRqJPoybBmrapOJofP44Nw&utm_campaign=yelp_api_v3&utm_medium=api_v3_business_search&utm_source=vRqJPoybBmrapOJofP44Nw", "review_count": 543, "categories": [{"alias": "indpak", "title": "Indian"}], "rating": 4.6, "coordinates": {"latitude": 40.7210905, "longitude": -73.9840446}, "transactions": ["pickup", "delivery", "restaurant_reservation"], "price": "$$", "location": {"address1": "6 Clinton St", "address2": "", "address3": null, "city": "New York", "zip_code": "10002", "country": "US", "state": "NY", "display_address": ["6 Clinton St", "New York, NY 10002"]}, "phone": "+12125332828", "display_phone": "(212) 533-2828", "distance": 1942.354079488816}, {"id": "zyQpS4QrYYB0VKXf7JPUlQ", "alias": "atithi-indian-cuisine-brooklyn", "name": "Atithi Indian Cuisine", "image_url": "https://s3-media3.fl.yelpcdn.com/bphoto/ZUBeEb5-a-XisknvoeVwUA/o.jpg", "is_closed": false, "url": "https://www.yelp.com/biz/atithi-indian-cuisine-brooklyn?adjust_creative=vRqJPoybBmrapOJofP44Nw&utm_campaign=yelp_api_v3&utm_medium=api_v3_business_search&utm_source=vRqJPoybBmrapOJofP44Nw", "review_count": 228, "categories": [{"alias": "indpak", "title": "Indian"}], "rating": 4.7, "coordinates": {"latitude": 40.714765, "longitude": -73.961606}, "transactions": ["pickup", "restaurant_reservation", "delivery"], "price": "$$", "location": {"address1": "159 Grand St", "address2": null, "address3": "", "city": "Brooklyn", "zip_code": "11249", "country": "US", "state": "NY", "display_address": ["159 Grand St", "Brooklyn, NY 11249"]}, "phone": "+17186849192", "display_phone": "(718) 684-9192", "distance": 2948.0132058766058}, {"id": "x0k5kFArHLijdY8-NEQ7Xg", "alias": "bengal-tiger-indian-food-new-york", "name": "Bengal Tiger Indian Food", "image_url": "https://s3-media2.fl.yelpcdn.com/bphoto/65Q6vtiAqLDVFLrvu0ZdZA/o.jpg", "is_closed": false, "url": "https://www.yelp.com/biz/bengal-tiger-indian-food-new-york?adjust_creative=vRqJPoybBmrapOJofP44Nw&utm_campaign=yelp_api_v3&utm_medium=api_v3_business_search&utm_source=vRqJPoybBmrapOJofP44Nw", "review_count": 2370, "categories": [{"alias": "indpak", "title": "Indian"}], "rating": 4.5, "coordinates": {"latitude": 40.763167, "longitude": -73.977131}, "transactions": ["pickup", "delivery"], "price": "$$", "location": {"address1": "58 W 56th St", "address2": "Fl 2", "address3": "", "city": "New York", "zip_code": "10019", "country": "US", "state": "NY", "display_address": ["58 W 56th St", "Fl 2", "New York, NY 10019"]}, "phone": "+12122652703", "display_phone": "(212) 265-2703", "distance": 6579.278643154158}, {"id": "t6PzD4uzBOfyCLcd_lT8cQ", "alias": "sathi-new-york", "name": "Sathi", "image_url": "https://s3-media2.fl.yelpcdn.com/bphoto/Dn6S00Ly7iatO434EMPqCw/o.jpg", "is_closed": false, "url": "https://www.yelp.com/biz/sathi-new-york?adjust_creative=vRqJPoybBmrapOJofP44Nw&utm_campaign=yelp_api_v3&utm_medium=api_v3_business_search&utm_source=vRqJPoybBmrapOJofP44Nw", "review_count": 319, "categories": [{"alias": "indpak", "title": "Indian"}, {"alias": "himalayan", "title": "Himalayan/Nepalese"}], "rating": 4.7, "coordinates": {"latitude": 40.73621, "longitude": -73.98528}, "transactions": ["pickup", "restaurant_reservation", "delivery"], "price": "$$", "location": {"address1": "216 3rd Ave", "address2": null, "address3": "", "city": "New York", "zip_code": "10003", "country": "US", "state": "NY", "display_address": ["216 3rd Ave", "New York, NY 10003"]}, "phone": "+12122603700", "display_phone": "(212) 260-3700", "distance": 3508.867822958064}, {"id": "EKY8DwZVWpkgv6IWrepbWg", "alias": "namaste-brooklyn-2", "name": "Namaste", "image_url": "https://s3-media3.fl.yelpcdn.com/bphoto/xFL00Q1jvFcO6dkgMRSH0g/o.jpg", "is_closed": false, "url": "https://www.yelp.com/biz/namaste-brooklyn-2?adjust_creative=vRqJPoybBmrapOJofP44Nw&utm_campaign=yelp_api_v3&utm_medium=api_v3_business_search&utm_source=vRqJPoybBmrapOJofP44Nw", "review_count": 345, "categories": [{"alias": "indpak", "title": "Indian"}], "rating": 4.3, "coordinates": {"latitude": 40.67673, "longitude": -73.98009}, "transactions": ["pickup", "delivery"], "price": "$$", "location": {"address1": "195 5th Ave", "address2": null, "address3": "", "city": "Brooklyn", "zip_code": "11217", "country": "US", "state": "NY", "display_address": ["195 5th Ave", "Brooklyn, NY 11217"]}, "phone": "+17188571951", "display_phone": "(718) 857-1951", "distance": 3410.4281567607045}, {"id": "BXoW0AUDE7WZJcY-Vhqlbg", "alias": "indian-table-brooklyn-2", "name": "Indian Table", "image_url": "https://s3-media4.fl.yelpcdn.com/bphoto/y5lmibVsQP1kNz6Fx5qEoA/o.jpg", "is_closed": false, "url": "https://www.yelp.com/biz/indian-table-brooklyn-2?adjust_creative=vRqJPoybBmrapOJofP44Nw&utm_campaign=yelp_api_v3&utm_medium=api_v3_business_search&utm_source=vRqJPoybBmrapOJofP44Nw", "review_count": 222, "categories": [{"alias": "indpak", "title": "Indian"}], "rating": 4.3, "coordinates": {"latitude": 40.6859591, "longitude": -73.9941661}, "transactions": ["pickup", "delivery"], "price": "$$", "location": {"address1": "234 Court St", "address2": "", "address3": null, "city": "Brooklyn", "zip_code": "11201", "country": "US", "state": "NY", "display_address": ["234 Court St", "Brooklyn, NY 11201"]}, "phone": "+13476893882", "display_phone": "(347) 689-3882", "distance": 2166.7422460752014}, {"id": "Xqk91WuhMeYS4pedccUYgA", "alias": "gazab-new-york", "name": "Gazab", "image_url": "https://s3-media3.fl.yelpcdn.com/bphoto/AuOMEQT6_UKD95-jNcYDLA/o.jpg", "is_closed": false, "url": "https://www.yelp.com/biz/gazab-new-york?adjust_creative=vRqJPoybBmrapOJofP44Nw&utm_campaign=yelp_api_v3&utm_medium=api_v3_business_search&utm_source=vRqJPoybBmrapOJofP44Nw", "review_count": 279, "categories": [{"alias": "indpak", "title": "Indian"}], "rating": 4.4, "coordinates": {"latitude": 40.72191, "longitude": -73.98666}, "transactions": ["pickup", "delivery"], "location": {"address1": "179 Essex St", "address2": "", "address3": null, "city": "New York", "zip_code": "10002", "country": "US", "state": "NY", "display_address": ["179 Essex St", "New York, NY 10002"]}, "phone": "+19173882664", "display_phone": "(917) 388-2664", "distance": 1941.6907576360677}, {"id": "IysZ64t48AedrhWfz3WJGQ", "alias": "cloves-indian-cuisine-new-york-2", "name": "Cloves Indian Cuisine", "image_url": "https://s3-media1.fl.yelpcdn.com/bphoto/6A5nzyLwmGAcXF1KPn94uQ/o.jpg", "is_closed": false, "url": "https://www.yelp.com/biz/cloves-indian-cuisine-new-york-2?adjust_creative=vRqJPoybBmrapOJofP44Nw&utm_campaign=yelp_api_v3&utm_medium=api_v3_business_search&utm_source=vRqJPoybBmrapOJofP44Nw", "review_count": 9, "categories": [{"alias": "indpak", "title": "Indian"}], "rating": 4.9, "coordinates": {"latitude": 40.74367, "longitude": -73.98612}, "transactions": ["pickup", "restaurant_reservation", "delivery"], "location": {"address1": "66 Madison Ave", "address2": "", "address3": null, "city": "New York", "zip_code": "10016", "country": "US", "state": "NY", "display_address": ["66 Madison Ave", "New York, NY 10016"]}, "phone": "+16463989444", "display_phone": "(646) 398-9444", "distance": 4311.755641928058}, {"id": "CVpha6hKVu_r1lx6JxNIPg", "alias": "veeray-da-dhaba-new-york", "name": "Veeray da Dhaba", "image_url": "https://s3-media3.fl.yelpcdn.com/bphoto/wJUtPDVM0nt7YTanUEpG2Q/o.jpg", "is_closed": false, "url": "https://www.yelp.com/biz/veeray-da-dhaba-new-york?adjust_creative=vRqJPoybBmrapOJofP44Nw&utm_campaign=yelp_api_v3&utm_medium=api_v3_business_search&utm_source=vRqJPoybBmrapOJofP44Nw", "review_count": 115, "categories": [{"alias": "indpak", "title": "Indian"}], "rating": 4.5, "coordinates": {"latitude": 40.730819, "longitude": -73.982723}, "transactions": ["pickup", "delivery"], "location": {"address1": "222 1st Ave", "address2": null, "address3": "", "city": "New York", "zip_code": "10009", "country": "US", "state": "NY", "display_address": ["222 1st Ave", "New York, NY 10009"]}, "phone": "+12127771420", "display_phone": "(212) 777-1420", "distance": 2982.89098669421}, {"id": "7VIUu8ay754GoUYEpsmxOA", "alias": "jazba-new-york", "name": "Jazba", "image_url": "https://s3-media2.fl.yelpcdn.com/bphoto/6ddz7I6MjaIfKu5OnBNn5g/o.jpg", "is_closed": false, "url": "https://www.yelp.com/biz/jazba-new-york?adjust_creative=vRqJPoybBmrapOJofP44Nw&utm_campaign=yelp_api_v3&utm_medium=api_v3_business_search&utm_source=vRqJPoybBmrapOJofP44Nw", "review_count": 104, "categories": [{"alias": "indpak", "title": "Indian"}, {"alias": "wine_bars", "title": "Wine Bars"}, {"alias": "cocktailbars", "title": "Cocktail Bars"}], "rating": 4.4, "coordinates": {"latitude": 40.731701, "longitude": -73.98585}, "transactions": ["pickup", "delivery"], "location": {"address1": "207 2nd Ave", "address2": "", "address3": null, "city": "New York", "zip_code": "10003", "country": "US", "state": "NY", "display_address": ["207 2nd Ave", "New York, NY 10003"]}, "phone": "+16468613343", "display_phone": "(646) 861-3343", "distance": 3005.219597599313}, {"id": "ByJBXa3HwPqw8eSPfDObkg", "alias": "mint-heights-brooklyn-3", "name": "Mint Heights", "image_url": "https://s3-media2.fl.yelpcdn.com/bphoto/bQpEp3wOsq2taHiNbpIrTg/o.jpg", "is_closed": false, "url": "https://www.yelp.com/biz/mint-heights-brooklyn-3?adjust_creative=vRqJPoybBmrapOJofP44Nw&utm_campaign=yelp_api_v3&utm_medium=api_v3_business_search&utm_source=vRqJPoybBmrapOJofP44Nw", "review_count": 126, "categories": [{"alias": "indpak", "title": "Indian"}], "rating": 4.5, "coordinates": {"latitude": 40.699657772028765, "longitude": -73.99217437260721}, "transactions": ["pickup", "delivery"], "location": {"address1": "46 Henry St", "address2": "", "address3": null, "city": "Brooklyn", "zip_code": "11201", "country": "US", "state": "NY", "display_address": ["46 Henry St", "Brooklyn, NY 11201"]}, "phone": "+13479160325", "display_phone": "(347) 916-0325", "distance": 667.8231707016055}, {"id": "Txm8KtUh9Mn2E7980jTr5g", "alias": "dhamaka-new-york", "name": "Dhamaka", "image_url": "https://s3-media1.fl.yelpcdn.com/bphoto/-Sp5A0npkHkp1aq-2lrcUg/o.jpg", "is_closed": false, "url": "https://www.yelp.com/biz/dhamaka-new-york?adjust_creative=vRqJPoybBmrapOJofP44Nw&utm_campaign=yelp_api_v3&utm_medium=api_v3_business_search&utm_source=vRqJPoybBmrapOJofP44Nw", "review_count": 474, "categories": [{"alias": "indpak", "title": "Indian"}], "rating": 3.8, "coordinates": {"latitude": 40.7180658, "longitude": -73.9881304}, "transactions": ["delivery"], "price": "$$$", "location": {"address1": "119 Delancey St", "address2": "Essex Market, Store  34", "address3": null, "city": "New York", "zip_code": "10002", "country": "US", "state": "NY", "display_address": ["119 Delancey St", "Essex Market, Store  34", "New York, NY 10002"]}, "phone": "+12122048616", "display_phone": "(212) 204-8616", "distance": 1496.4281506417149}, {"id": "objNX6cuj1JyUijFjw21Qw", "alias": "bombay-bistro-new-york-2", "name": "Bombay Bistro", "image_url": "https://s3-media3.fl.yelpcdn.com/bphoto/V-GwYZMTRDt8B1Dz7ke5UA/o.jpg", "is_closed": false, "url": "https://www.yelp.com/biz/bombay-bistro-new-york-2?adjust_creative=vRqJPoybBmrapOJofP44Nw&utm_campaign=yelp_api_v3&utm_medium=api_v3_business_search&utm_source=vRqJPoybBmrapOJofP44Nw", "review_count": 283, "categories": [{"alias": "indpak", "title": "Indian"}, {"alias": "cocktailbars", "title": "Cocktail Bars"}], "rating": 4.4, "coordinates": {"latitude": 40.73136, "longitude": -74.00253}, "transactions": ["pickup", "delivery"], "price": "$$", "location": {"address1": "31 Cornelia St", "address2": "", "address3": null, "city": "New York", "zip_code": "10014", "country": "US", "state": "NY", "display_address": ["31 Cornelia St", "New York, NY 10014"]}, "phone": "+16468503719", "display_phone": "(646) 850-3719", "distance": 2964.061413304234}, {"id": "7DUPGtHqVZHJ3yIufbWLsg", "alias": "malai-marke-indian-cuisine-new-york", "name": "Malai Marke Indian Cuisine", "image_url": "https://s3-media1.fl.yelpcdn.com/bphoto/jKKQcL3nCVngME5d3WMQIg/o.jpg", "is_closed": false, "url": "https://www.yelp.com/biz/malai-marke-indian-cuisine-new-york?adjust_creative=vRqJPoybBmrapOJofP44Nw&utm_campaign=yelp_api_v3&utm_medium=api_v3_business_search&utm_source=vRqJPoybBmrapOJofP44Nw", "review_count": 658, "categories": [{"alias": "indpak", "title": "Indian"}], "rating": 4.0, "coordinates": {"latitude": 40.726934, "longitude": -73.98758}, "transactions": ["pickup", "delivery"], "price": "$$", "location": {"address1": "318 E 6th St", "address2": null, "address3": "", "city": "New York", "zip_code": "10003", "country": "US", "state": "NY", "display_address": ["318 E 6th St", "New York, NY 10003"]}, "phone": "+12127777729", "display_phone": "(212) 777-7729", "distance": 2455.551726750378}, {"id": "HFIu45xr93jqchnN1YVJeQ", "alias": "masalawala-and-sons-brooklyn", "name": "Masalawala & Sons", "image_url": "https://s3-media4.fl.yelpcdn.com/bphoto/nsbyTWxvVbj2aiQj0Lb-Gw/o.jpg", "is_closed": false, "url": "https://www.yelp.com/biz/masalawala-and-sons-brooklyn?adjust_creative=vRqJPoybBmrapOJofP44Nw&utm_campaign=yelp_api_v3&utm_medium=api_v3_business_search&utm_source=vRqJPoybBmrapOJofP44Nw", "review_count": 108, "categories": [{"alias": "indpak", "title": "Indian"}], "rating": 3.9, "coordinates": {"latitude": 40.67148382626093, "longitude": -73.9842655}, "transactions": [], "location": {"address1": "365 5th Ave", "address2": "", "address3": null, "city": "Brooklyn", "zip_code": "11215", "country": "US", "state": "NY", "display_address": ["365 5th Ave", "Brooklyn, NY 11215"]}, "phone": "+12123589300", "display_phone": "(212) 358-9300", "distance": 3869.7834932140167}, {"id": "jf3JRaxUYU93x8LFU-8gkA", "alias": "gupshup-new-york", "name": "GupShup", "image_url": "https://s3-media2.fl.yelpcdn.com/bphoto/GuGJeoIC7Vl6hH6Q7LYjWg/o.jpg", "is_closed": false, "url": "https://www.yelp.com/biz/gupshup-new-york?adjust_creative=vRqJPoybBmrapOJofP44Nw&utm_campaign=yelp_api_v3&utm_medium=api_v3_business_search&utm_source=vRqJPoybBmrapOJofP44Nw", "review_count": 737, "categories": [{"alias": "indpak", "title": "Indian"}, {"alias": "cocktailbars", "title": "Cocktail Bars"}, {"alias": "breakfast_brunch", "title": "Breakfast & Brunch"}], "rating": 4.0, "coordinates": {"latitude": 40.7368831, "longitude": -73.98762055398464}, "transactions": ["pickup", "delivery"], "price": "$$$", "location": {"address1": "115 E18th St", "address2": null, "address3": "", "city": "New York", "zip_code": "10003", "country": "US", "state": "NY", "display_address": ["115 E18th St", "New York, NY 10003"]}, "phone": "+12125187313", "display_phone": "(212) 518-7313", "distance": 3540.707877195775}, {"id": "xWVHj2XNcxEg79Nkb5Zb6Q", "alias": "semma-new-york-2", "name": "Semma", "image_url": "https://s3-media1.fl.yelpcdn.com/bphoto/BO7SVHMd3GTMRFuHgpN2LA/o.jpg", "is_closed": false, "url": "https://www.yelp.com/biz/semma-new-york-2?adjust_creative=vRqJPoybBmrapOJofP44Nw&utm_campaign=yelp_api_v3&utm_medium=api_v3_business_search&utm_source=vRqJPoybBmrapOJofP44Nw", "review_count": 416, "categories": [{"alias": "indpak", "title": "Indian"}, {"alias": "wine_bars", "title": "Wine Bars"}, {"alias": "cocktailbars", "title": "Cocktail Bars"}], "rating": 4.1, "coordinates": {"latitude": 40.736054206102615, "longitude": -74.0005639}, "transactions": [], "price": "$$$$", "location": {"address1": "60 Greenwich Ave", "address2": "", "address3": null, "city": "New York", "zip_code": "10011", "country": "US", "state": "NY", "display_address": ["60 Greenwich Ave", "New York, NY 10011"]}, "phone": "+12123738900", "display_phone": "(212) 373-8900", "distance": 3444.380771832526}, {"id": "3hlAeWgSKAnSQ1tg8k8D8g", "alias": "alachi-masala-new-york-3", "name": "Alachi Masala", "image_url": "https://s3-media2.fl.yelpcdn.com/bphoto/6h_KJ0SWdJKytw58coTezw/o.jpg", "is_closed": false, "url": "https://www.yelp.com/biz/alachi-masala-new-york-3?adjust_creative=vRqJPoybBmrapOJofP44Nw&utm_campaign=yelp_api_v3&utm_medium=api_v3_business_search&utm_source=vRqJPoybBmrapOJofP44Nw", "review_count": 292, "categories": [{"alias": "indpak", "title": "Indian"}], "rating": 3.9, "coordinates": {"latitude": 40.78620473306449, "longitude": -73.97648420341335}, "transactions": ["pickup", "delivery"], "price": "$", "location": {"address1": "488 Amsterdam Ave", "address2": "", "address3": "", "city": "New York", "zip_code": "10024", "country": "US", "state": "NY", "display_address": ["488 Amsterdam Ave", "New York, NY 10024"]}, "phone": "+12128740737", "display_phone": "(212) 874-0737", "distance": 9104.538710146235}, {"id": "rpzgv0Y6fIT6RcBsxFsrSg", "alias": "paratha-wala-forest-hills-2", "name": "Paratha Wala", "image_url": "https://s3-media1.fl.yelpcdn.com/bphoto/x5jCWQrCV0U1fqluJ5KDSQ/o.jpg", "is_closed": false, "url": "https://www.yelp.com/biz/paratha-wala-forest-hills-2?adjust_creative=vRqJPoybBmrapOJofP44Nw&utm_campaign=yelp_api_v3&utm_medium=api_v3_business_search&utm_source=vRqJPoybBmrapOJofP44Nw", "review_count": 548, "categories": [{"alias": "indpak", "title": "Indian"}, {"alias": "halal", "title": "Halal"}, {"alias": "bangladeshi", "title": "Bangladeshi"}], "rating": 4.6, "coordinates": {"latitude": 40.71044, "longitude": -73.84942}, "transactions": ["pickup", "restaurant_reservation", "delivery"], "price": "$$", "location": {"address1": "103-09 Metropolitan Ave", "address2": null, "address3": "", "city": "Forest Hills", "zip_code": "11375", "country": "US", "state": "NY", "display_address": ["103-09 Metropolitan Ave", "Forest Hills, NY 11375"]}, "phone": "+13475615319", "display_phone": "(347) 561-5319", "distance": 12223.93249849401}, {"id": "iLjrQvbUYPj6NLkalyau0w", "alias": "hyderabadi-zaiqa-new-york", "name": "Hyderabadi Zaiqa", "image_url": "https://s3-media3.fl.yelpcdn.com/bphoto/-pTRBtaU0brMKqoLdye-mw/o.jpg", "is_closed": false, "url": "https://www.yelp.com/biz/hyderabadi-zaiqa-new-york?adjust_creative=vRqJPoybBmrapOJofP44Nw&utm_campaign=yelp_api_v3&utm_medium=api_v3_business_search&utm_source=vRqJPoybBmrapOJofP44Nw", "review_count": 48, "categories": [{"alias": "desserts", "title": "Desserts"}, {"alias": "juicebars", "title": "Juice Bars & Smoothies"}, {"alias": "indpak", "title": "Indian"}], "rating": 4.8, "coordinates": {"latitude": 40.76439568665357, "longitude": -73.9876243}, "transactions": ["pickup", "delivery"], "location": {"address1": "366 W 52 St", "address2": "", "address3": "", "city": "New York", "zip_code": "10019", "country": "US", "state": "NY", "display_address": ["366 W 52 St", "New York, NY 10019"]}, "phone": "+16469520066", "display_phone": "(646) 952-0066", "distance": 6579.064042212859}, {"id": "mZALre3ahuetu5X8_uUJew", "alias": "thelewala-new-york", "name": "Thelewala", "image_url": "https://s3-media2.fl.yelpcdn.com/bphoto/5KgclMDut5vG1d_nrvW7Yw/o.jpg", "is_closed": false, "url": "https://www.yelp.com/biz/thelewala-new-york?adjust_creative=vRqJPoybBmrapOJofP44Nw&utm_campaign=yelp_api_v3&utm_medium=api_v3_business_search&utm_source=vRqJPoybBmrapOJofP44Nw", "review_count": 546, "categories": [{"alias": "indpak", "title": "Indian"}], "rating": 4.1, "coordinates": {"latitude": 40.72963, "longitude": -74.00068}, "transactions": ["pickup", "delivery"], "price": "$", "location": {"address1": "112 Macdougal St", "address2": "", "address3": "", "city": "New York", "zip_code": "10012", "country": "US", "state": "NY", "display_address": ["112 Macdougal St", "New York, NY 10012"]}, "phone": "+12126149100", "display_phone": "(212) 614-9100", "distance": 2737.9401950683323}, {"id": "mHRu4KZXYM_RwyFXBGncsA", "alias": "inday-all-day-brooklyn", "name": "INDAY All Day", "image_url": "https://s3-media2.fl.yelpcdn.com/bphoto/_KIWshKhKOVFFEnMpNoLrw/o.jpg", "is_closed": false, "url": "https://www.yelp.com/biz/inday-all-day-brooklyn?adjust_creative=vRqJPoybBmrapOJofP44Nw&utm_campaign=yelp_api_v3&utm_medium=api_v3_business_search&utm_source=vRqJPoybBmrapOJofP44Nw", "review_count": 65, "categories": [{"alias": "indpak", "title": "Indian"}, {"alias": "salad", "title": "Salad"}, {"alias": "gluten_free", "title": "Gluten-Free"}], "rating": 4.4, "coordinates": {"latitude": 40.71471, "longitude": -73.95921}, "transactions": ["pickup", "delivery"], "price": "$$", "location": {"address1": "658 Driggs Ave", "address2": null, "address3": "", "city": "Brooklyn", "zip_code": "11211", "country": "US", "state": "NY", "display_address": ["658 Driggs Ave", "Brooklyn, NY 11211"]}, "phone": "+13322281566", "display_phone": "(332) 228-1566", "distance": 3129.090667935471}, {"id": "7DzfrwNwXmbS6OhYxPKfHQ", "alias": "kanyakumari-new-york-3", "name": "Kanyakumari", "image_url": "https://s3-media1.fl.yelpcdn.com/bphoto/mOA6WBTPKjSTizvbMZu_HA/o.jpg", "is_closed": false, "url": "https://www.yelp.com/biz/kanyakumari-new-york-3?adjust_creative=vRqJPoybBmrapOJofP44Nw&utm_campaign=yelp_api_v3&utm_medium=api_v3_business_search&utm_source=vRqJPoybBmrapOJofP44Nw", "review_count": 15, "categories": [{"alias": "seafood", "title": "Seafood"}, {"alias": "indpak", "title": "Indian"}, {"alias": "cocktailbars", "title": "Cocktail Bars"}], "rating": 4.9, "coordinates": {"latitude": 40.737313, "longitude": -73.991263}, "transactions": [], "location": {"address1": "20 E 17th St", "address2": null, "address3": "", "city": "New York", "zip_code": "10003", "country": "US", "state": "NY", "display_address": ["20 E 17th St", "New York, NY 10003"]}, "phone": "+12126410401", "display_phone": "(212) 641-0401", "distance": 3548.3448334147483}, {"id": "fCxjrytrEw_l9vGjSCzszg", "alias": "paisley-new-york-2", "name": "Paisley", "image_url": "https://s3-media4.fl.yelpcdn.com/bphoto/0Q6wJhgNByrUiAXHznRTFw/o.jpg", "is_closed": false, "url": "https://www.yelp.com/biz/paisley-new-york-2?adjust_creative=vRqJPoybBmrapOJofP44Nw&utm_campaign=yelp_api_v3&utm_medium=api_v3_business_search&utm_source=vRqJPoybBmrapOJofP44Nw", "review_count": 109, "categories": [{"alias": "indpak", "title": "Indian"}], "rating": 4.3, "coordinates": {"latitude": 40.722387, "longitude": -74.0095662}, "transactions": ["pickup", "restaurant_reservation", "delivery"], "location": {"address1": "429 Greenwich St", "address2": "", "address3": null, "city": "New York", "zip_code": "10013", "country": "US", "state": "NY", "display_address": ["429 Greenwich St", "New York, NY 10013"]}, "phone": "+12122748003", "display_phone": "(212) 274-8003", "distance": 2281.669183448833}, {"id": "MtZaEGCm6zdAV8W4TWlerQ", "alias": "masti-indian-grill-and-chatt-bar-new-york", "name": "Masti Indian Grill & Chatt Bar", "image_url": "https://s3-media1.fl.yelpcdn.com/bphoto/YpXIH127SeFMdAwlj-KPwA/o.jpg", "is_closed": false, "url": "https://www.yelp.com/biz/masti-indian-grill-and-chatt-bar-new-york?adjust_creative=vRqJPoybBmrapOJofP44Nw&utm_campaign=yelp_api_v3&utm_medium=api_v3_business_search&utm_source=vRqJPoybBmrapOJofP44Nw", "review_count": 130, "categories": [{"alias": "indpak", "title": "Indian"}], "rating": 4.6, "coordinates": {"latitude": 40.710625, "longitude": -73.9583}, "transactions": ["pickup", "delivery"], "location": {"address1": "184 Havemeyer St", "address2": null, "address3": "", "city": "New York", "zip_code": "11211", "country": "US", "state": "NY", "display_address": ["184 Havemeyer St", "New York, NY 11211"]}, "phone": "+17185991516", "display_phone": "(718) 599-1516", "distance": 3087.065553698936}, {"id": "jYhbUh1TV7SCfPxjIhVpcg", "alias": "baar-baar-new-york-2", "name": "Baar Baar", "image_url": "https://s3-media2.fl.yelpcdn.com/bphoto/QOh0iMXy-09xT50juVxYnw/o.jpg", "is_closed": false, "url": "https://www.yelp.com/biz/baar-baar-new-york-2?adjust_creative=vRqJPoybBmrapOJofP44Nw&utm_campaign=yelp_api_v3&utm_medium=api_v3_business_search&utm_source=vRqJPoybBmrapOJofP44Nw", "review_count": 1269, "categories": [{"alias": "gastropubs", "title": "Gastropubs"}, {"alias": "indpak", "title": "Indian"}, {"alias": "cocktailbars", "title": "Cocktail Bars"}], "rating": 3.9, "coordinates": {"latitude": 40.7244378855031, "longitude": -73.9915524}, "transactions": ["pickup", "delivery"], "price": "$$$", "location": {"address1": "13 E 1st St", "address2": "", "address3": "", "city": "New York", "zip_code": "10003", "country": "US", "state": "NY", "display_address": ["13 E 1st St", "New York, NY 10003"]}, "phone": "+12122281200", "display_phone": "(212) 228-1200", "distance": 2124.5209754934885}, {"id": "Q7wFlNr4OFU0eCJXcOmopg", "alias": "bombays-indian-restaurant-new-york", "name": "Bombay's Indian Restaurant", "image_url": "https://s3-media2.fl.yelpcdn.com/bphoto/niauyT1Lg_dlYsTrHmTHbA/o.jpg", "is_closed": false, "url": "https://www.yelp.com/biz/bombays-indian-restaurant-new-york?adjust_creative=vRqJPoybBmrapOJofP44Nw&utm_campaign=yelp_api_v3&utm_medium=api_v3_business_search&utm_source=vRqJPoybBmrapOJofP44Nw", "review_count": 272, "categories": [{"alias": "indpak", "title": "Indian"}], "rating": 3.8, "coordinates": {"latitude": 40.70344, "longitude": -74.01109}, "transactions": ["pickup", "delivery"], "price": "$$", "location": {"address1": "60 Pearl St", "address2": null, "address3": "", "city": "New York", "zip_code": "10004", "country": "US", "state": "NY", "display_address": ["60 Pearl St", "New York, NY 10004"]}, "phone": "+12127422222", "display_phone": "(212) 742-2222", "distance": 1432.7864426875185}, {"id": "ZZQkvnRoO5YfCAlOjd2heA", "alias": "diwali-indian-cuisine-brooklyn", "name": "Diwali Indian Cuisine", "image_url": "https://s3-media1.fl.yelpcdn.com/bphoto/4ZJ0DVs-_lhUIF2Fu7D37A/o.jpg", "is_closed": false, "url": "https://www.yelp.com/biz/diwali-indian-cuisine-brooklyn?adjust_creative=vRqJPoybBmrapOJofP44Nw&utm_campaign=yelp_api_v3&utm_medium=api_v3_business_search&utm_source=vRqJPoybBmrapOJofP44Nw", "review_count": 3, "categories": [{"alias": "indpak", "title": "Indian"}, {"alias": "venues", "title": "Venues & Event Spaces"}], "rating": 5.0, "coordinates": {"latitude": 40.680704, "longitude": -73.952627}, "transactions": ["pickup", "delivery"], "location": {"address1": "1221 Fulton St", "address2": "", "address3": null, "city": "Brooklyn", "zip_code": "11216", "country": "US", "state": "NY", "display_address": ["1221 Fulton St", "Brooklyn, NY 11216"]}, "phone": "+17184400693", "display_phone": "(718) 440-0693", "distance": 4458.503978130251}, {"id": "ZNJ4ij7_xOlKSeMeEh1khA", "alias": "rowdy-rooster-new-york", "name": "Rowdy Rooster", "image_url": "https://s3-media2.fl.yelpcdn.com/bphoto/Ju0To9zgCvbWPYv_HCjsDA/o.jpg", "is_closed": false, "url": "https://www.yelp.com/biz/rowdy-rooster-new-york?adjust_creative=vRqJPoybBmrapOJofP44Nw&utm_campaign=yelp_api_v3&utm_medium=api_v3_business_search&utm_source=vRqJPoybBmrapOJofP44Nw", "review_count": 221, "categories": [{"alias": "indpak", "title": "Indian"}, {"alias": "chickenshop", "title": "Chicken Shop"}], "rating": 4.4, "coordinates": {"latitude": 40.728473350506725, "longitude": -73.98500709999999}, "transactions": ["pickup", "delivery"], "price": "$$", "location": {"address1": "149 1st Ave", "address2": "", "address3": null, "city": "New York", "zip_code": "10003", "country": "US", "state": "NY", "display_address": ["149 1st Ave", "New York, NY 10003"]}, "phone": "", "display_phone": "", "distance": 2677.5774073852504}, {"id": "79tuTkX_lPft7hMxFVjENg", "alias": "mint-heights-fort-greene-brooklyn", "name": "Mint Heights - Fort Greene", "image_url": "https://s3-media4.fl.yelpcdn.com/bphoto/IQHyPhzb7EAVYnotQ1G2Ig/o.jpg", "is_closed": false, "url": "https://www.yelp.com/biz/mint-heights-fort-greene-brooklyn?adjust_creative=vRqJPoybBmrapOJofP44Nw&utm_campaign=yelp_api_v3&utm_medium=api_v3_business_search&utm_source=vRqJPoybBmrapOJofP44Nw", "review_count": 10, "categories": [{"alias": "indpak", "title": "Indian"}], "rating": 4.8, "coordinates": {"latitude": 40.693045, "longitude": -73.971443}, "transactions": ["pickup", "delivery"], "location": {"address1": "368 Myrtle Ave", "address2": null, "address3": "", "city": "Brooklyn", "zip_code": "11205", "country": "US", "state": "NY", "display_address": ["368 Myrtle Ave", "Brooklyn, NY 11205"]}, "phone": "+17182374008", "display_phone": "(718) 237-4008", "distance": 2372.3398173746723}, {"id": "WWpOWqOgS9ClYvxYVzR0lg", "alias": "tikka-indian-grill-brooklyn-5", "name": "Tikka Indian Grill", "image_url": "https://s3-media1.fl.yelpcdn.com/bphoto/9MqEPwvokdal3sfEjzdF6w/o.jpg", "is_closed": false, "url": "https://www.yelp.com/biz/tikka-indian-grill-brooklyn-5?adjust_creative=vRqJPoybBmrapOJofP44Nw&utm_campaign=yelp_api_v3&utm_medium=api_v3_business_search&utm_source=vRqJPoybBmrapOJofP44Nw", "review_count": 380, "categories": [{"alias": "indpak", "title": "Indian"}, {"alias": "desserts", "title": "Desserts"}, {"alias": "soup", "title": "Soup"}], "rating": 4.2, "coordinates": {"latitude": 40.71441, "longitude": -73.96078}, "transactions": ["pickup", "delivery"], "price": "$$", "location": {"address1": "185 Grand St", "address2": "", "address3": "", "city": "Brooklyn", "zip_code": "11211", "country": "US", "state": "NY", "display_address": ["185 Grand St", "Brooklyn, NY 11211"]}, "phone": "+17187682262", "display_phone": "(718) 768-2262", "distance": 2998.4522687240865}, {"id": "juAQ4DHCW_24LpV1T1JmBA", "alias": "patiala-indian-grill-and-bar-new-york", "name": "Patiala Indian Grill  & Bar", "image_url": "https://s3-media2.fl.yelpcdn.com/bphoto/XBs3LhzRZ6vdcs5Z93-a2g/o.jpg", "is_closed": false, "url": "https://www.yelp.com/biz/patiala-indian-grill-and-bar-new-york?adjust_creative=vRqJPoybBmrapOJofP44Nw&utm_campaign=yelp_api_v3&utm_medium=api_v3_business_search&utm_source=vRqJPoybBmrapOJofP44Nw", "review_count": 22, "categories": [{"alias": "indpak", "title": "Indian"}, {"alias": "seafood", "title": "Seafood"}, {"alias": "cocktailbars", "title": "Cocktail Bars"}], "rating": 4.4, "coordinates": {"latitude": 40.752147, "longitude": -73.991864}, "transactions": ["delivery"], "location": {"address1": "240 W 35th St", "address2": "", "address3": null, "city": "New York", "zip_code": "10001", "country": "US", "state": "NY", "display_address": ["240 W 35th St", "New York, NY 10001"]}, "phone": "+12125648255", "display_phone": "(212) 564-8255", "distance": 5191.450087384481}, {"id": "ZqOxAKVZEZTa4XS4zthp3Q", "alias": "bombay-grill-brooklyn-5", "name": "Bombay Grill", "image_url": "https://s3-media4.fl.yelpcdn.com/bphoto/fkyi6KQZM1LzRP-Fntk8yg/o.jpg", "is_closed": false, "url": "https://www.yelp.com/biz/bombay-grill-brooklyn-5?adjust_creative=vRqJPoybBmrapOJofP44Nw&utm_campaign=yelp_api_v3&utm_medium=api_v3_business_search&utm_source=vRqJPoybBmrapOJofP44Nw", "review_count": 294, "categories": [{"alias": "indpak", "title": "Indian"}], "rating": 4.5, "coordinates": {"latitude": 40.68395749161352, "longitude": -73.9543181843268}, "transactions": ["pickup", "delivery"], "price": "$$", "location": {"address1": "1176 Bedford Ave", "address2": "", "address3": "", "city": "Brooklyn", "zip_code": "11216", "country": "US", "state": "NY", "display_address": ["1176 Bedford Ave", "Brooklyn, NY 11216"]}, "phone": "+17184840004", "display_phone": "(718) 484-0004", "distance": 4131.202967779763}, {"id": "u1gdMF6vMCdwCilQ6vgyfw", "alias": "honest-new-york", "name": "Honest", "image_url": "https://s3-media4.fl.yelpcdn.com/bphoto/YjLPopNY7KLzAo_X4PsE3A/o.jpg", "is_closed": false, "url": "https://www.yelp.com/biz/honest-new-york?adjust_creative=vRqJPoybBmrapOJofP44Nw&utm_campaign=yelp_api_v3&utm_medium=api_v3_business_search&utm_source=vRqJPoybBmrapOJofP44Nw", "review_count": 60, "categories": [{"alias": "indpak", "title": "Indian"}], "rating": 4.2, "coordinates": {"latitude": 40.72887, "longitude": -74.00082}, "transactions": ["pickup", "delivery"], "price": "$$", "location": {"address1": "176 Bleecker St", "address2": "", "address3": null, "city": "New York", "zip_code": "10012", "country": "US", "state": "NY", "display_address": ["176 Bleecker St", "New York, NY 10012"]}, "phone": "+19172612610", "display_phone": "(917) 261-2610", "distance": 2660.2773060977484}, {"id": "HEs6llkn3wIP1ATXeIZQew", "alias": "pippali-new-york", "name": "Pippali", "image_url": "https://s3-media1.fl.yelpcdn.com/bphoto/CHWpY5PW5Sd89khh8neo8g/o.jpg", "is_closed": false, "url": "https://www.yelp.com/biz/pippali-new-york?adjust_creative=vRqJPoybBmrapOJofP44Nw&utm_campaign=yelp_api_v3&utm_medium=api_v3_business_search&utm_source=vRqJPoybBmrapOJofP44Nw", "review_count": 905, "categories": [{"alias": "indpak", "title": "Indian"}], "rating": 4.1, "coordinates": {"latitude": 40.74233, "longitude": -73.98331}, "transactions": ["pickup", "delivery", "restaurant_reservation"], "price": "$$", "location": {"address1": "129 E 27th St", "address2": "", "address3": "", "city": "New York", "zip_code": "10016", "country": "US", "state": "NY", "display_address": ["129 E 27th St", "New York, NY 10016"]}, "phone": "+12126891999", "display_phone": "(212) 689-1999", "distance": 4206.33761694396}, {"id": "iXrKGRzIZK0pp31mO3nBzA", "alias": "spice-and-grill-brooklyn-3", "name": "Spice & Grill", "image_url": "https://s3-media2.fl.yelpcdn.com/bphoto/l8aeKIIfEjwLAEGDAGDX0w/o.jpg", "is_closed": false, "url": "https://www.yelp.com/biz/spice-and-grill-brooklyn-3?adjust_creative=vRqJPoybBmrapOJofP44Nw&utm_campaign=yelp_api_v3&utm_medium=api_v3_business_search&utm_source=vRqJPoybBmrapOJofP44Nw", "review_count": 187, "categories": [{"alias": "indpak", "title": "Indian"}, {"alias": "himalayan", "title": "Himalayan/Nepalese"}, {"alias": "seafood", "title": "Seafood"}], "rating": 4.2, "coordinates": {"latitude": 40.6933894, "longitude": -73.9679912}, "transactions": ["pickup", "delivery"], "price": "$$", "location": {"address1": "441 Myrtle Ave", "address2": "", "address3": "", "city": "Brooklyn", "zip_code": "11205", "country": "US", "state": "NY", "display_address": ["441 Myrtle Ave", "Brooklyn, NY 11205"]}, "phone": "+17188752525", "display_phone": "(718) 875-2525", "distance": 2591.0132970039026}, {"id": "ZwER8TyQH70ACI-nIG682g", "alias": "chote-miya-brooklyn", "name": "Chote Miya", "image_url": "https://s3-media1.fl.yelpcdn.com/bphoto/OxrpHzIoYHmsCpxjOBczaA/o.jpg", "is_closed": false, "url": "https://www.yelp.com/biz/chote-miya-brooklyn?adjust_creative=vRqJPoybBmrapOJofP44Nw&utm_campaign=yelp_api_v3&utm_medium=api_v3_business_search&utm_source=vRqJPoybBmrapOJofP44Nw", "review_count": 55, "categories": [{"alias": "indpak", "title": "Indian"}], "rating": 4.0, "coordinates": {"latitude": 40.7034194804375, "longitude": -73.9916073158383}, "transactions": ["delivery"], "location": {"address1": "55 Water St", "address2": "", "address3": null, "city": "Brooklyn", "zip_code": "11201", "country": "US", "state": "NY", "display_address": ["55 Water St", "Brooklyn, NY 11201"]}, "phone": "", "display_phone": "", "distance": 319.3445695969451}, {"id": "9MO5UogFuvqAriOA9RlqKA", "alias": "saravana-bhavan-new-york-4", "name": "Saravana Bhavan", "image_url": "https://s3-media1.fl.yelpcdn.com/bphoto/E7ET6SngRlP55AVGlAk99w/o.jpg", "is_closed": false, "url": "https://www.yelp.com/biz/saravana-bhavan-new-york-4?adjust_creative=vRqJPoybBmrapOJofP44Nw&utm_campaign=yelp_api_v3&utm_medium=api_v3_business_search&utm_source=vRqJPoybBmrapOJofP44Nw", "review_count": 10, "categories": [{"alias": "vegetarian", "title": "Vegetarian"}], "rating": 4.1, "coordinates": {"latitude": 40.7038, "longitude": -74.00816}, "transactions": ["pickup", "delivery"], "location": {"address1": "32 Old Slip", "address2": "", "address3": null, "city": "New York", "zip_code": "10005", "country": "US", "state": "NY", "display_address": ["32 Old Slip", "New York, NY 10005"]}, "phone": "+19175133582", "display_phone": "(917) 513-3582", "distance": 1147.2666940054028}, {"id": "NKI1VvfXYluRjnq4S6yEuw", "alias": "divyas-kitchen-new-york", "name": "Divya's Kitchen", "image_url": "https://s3-media3.fl.yelpcdn.com/bphoto/WFW-9lYNtQRwUfnkZj_QaQ/o.jpg", "is_closed": false, "url": "https://www.yelp.com/biz/divyas-kitchen-new-york?adjust_creative=vRqJPoybBmrapOJofP44Nw&utm_campaign=yelp_api_v3&utm_medium=api_v3_business_search&utm_source=vRqJPoybBmrapOJofP44Nw", "review_count": 494, "categories": [{"alias": "vegan", "title": "Vegan"}, {"alias": "vegetarian", "title": "Vegetarian"}, {"alias": "indpak", "title": "Indian"}], "rating": 4.5, "coordinates": {"latitude": 40.7237699, "longitude": -73.9884755125743}, "transactions": ["pickup", "delivery"], "price": "$$", "location": {"address1": "25 1st Ave", "address2": null, "address3": "", "city": "New York", "zip_code": "10003", "country": "US", "state": "NY", "display_address": ["25 1st Ave", "New York, NY 10003"]}, "phone": "+12124774834", "display_phone": "(212) 477-4834", "distance": 2095.813426345864}, {"id": "XKy4Cy4uNgO7rxhH4yFJQQ", "alias": "mughlai-indian-cuisine-new-york-3", "name": "Mughlai Indian Cuisine", "image_url": "https://s3-media3.fl.yelpcdn.com/bphoto/Z2sYUaOOYIWEFHanImNtNQ/o.jpg", "is_closed": false, "url": "https://www.yelp.com/biz/mughlai-indian-cuisine-new-york-3?adjust_creative=vRqJPoybBmrapOJofP44Nw&utm_campaign=yelp_api_v3&utm_medium=api_v3_business_search&utm_source=vRqJPoybBmrapOJofP44Nw", "review_count": 469, "categories": [{"alias": "indpak", "title": "Indian"}], "rating": 4.2, "coordinates": {"latitude": 40.7397599, "longitude": -73.98226}, "transactions": ["pickup", "delivery"], "price": "$$", "location": {"address1": "329 3rd Ave", "address2": null, "address3": "", "city": "New York", "zip_code": "10010", "country": "US", "state": "NY", "display_address": ["329 3rd Ave", "New York, NY 10010"]}, "phone": "+12128890909", "display_phone": "(212) 889-0909", "distance": 3946.357665877687}, {"id": "XLEdQl5s1bO5Iu43W_c96Q", "alias": "muna-new-york-2", "name": "Muna", "image_url": "https://s3-media2.fl.yelpcdn.com/bphoto/NM7mXPWqmNLbkVGB_pWL6w/o.jpg", "is_closed": false, "url": "https://www.yelp.com/biz/muna-new-york-2?adjust_creative=vRqJPoybBmrapOJofP44Nw&utm_campaign=yelp_api_v3&utm_medium=api_v3_business_search&utm_source=vRqJPoybBmrapOJofP44Nw", "review_count": 68, "categories": [{"alias": "himalayan", "title": "Himalayan/Nepalese"}, {"alias": "indpak", "title": "Indian"}], "rating": 4.7, "coordinates": {"latitude": 40.753509, "longitude": -73.973515}, "transactions": ["pickup", "delivery"], "location": {"address1": "152 East 46th St", "address2": null, "address3": "", "city": "New York", "zip_code": "10017", "country": "US", "state": "NY", "display_address": ["152 East 46th St", "New York, NY 10017"]}, "phone": "+16463987960", "display_phone": "(646) 398-7960", "distance": 5623.963513254372}, {"id": "GaxVczLK1qUuJHOP9VcFsQ", "alias": "ananda-new-york-4", "name": "Ananda", "image_url": "https://s3-media2.fl.yelpcdn.com/bphoto/BcEKtAx2k7Lp306o1i_tCw/o.jpg", "is_closed": false, "url": "https://www.yelp.com/biz/ananda-new-york-4?adjust_creative=vRqJPoybBmrapOJofP44Nw&utm_campaign=yelp_api_v3&utm_medium=api_v3_business_search&utm_source=vRqJPoybBmrapOJofP44Nw", "review_count": 406, "categories": [{"alias": "indpak", "title": "Indian"}, {"alias": "vegetarian", "title": "Vegetarian"}, {"alias": "kosher", "title": "Kosher"}], "rating": 4.2, "coordinates": {"latitude": 40.728724, "longitude": -73.999147}, "transactions": ["pickup", "delivery"], "price": "$$", "location": {"address1": "210 Thompson St", "address2": null, "address3": "", "city": "New York", "zip_code": "10012", "country": "US", "state": "NY", "display_address": ["210 Thompson St", "New York, NY 10012"]}, "phone": "+12125337290", "display_phone": "(212) 533-7290", "distance": 2621.50680422371}, {"id": "FvnExtQHPfz_crDCBTQ1iQ", "alias": "mint-masala-new-york", "name": "Mint Masala", "image_url": "https://s3-media3.fl.yelpcdn.com/bphoto/hmoJmqweg1MQ4KIT7QQOvA/o.jpg", "is_closed": false, "url": "https://www.yelp.com/biz/mint-masala-new-york?adjust_creative=vRqJPoybBmrapOJofP44Nw&utm_campaign=yelp_api_v3&utm_medium=api_v3_business_search&utm_source=vRqJPoybBmrapOJofP44Nw", "review_count": 350, "categories": [{"alias": "indpak", "title": "Indian"}, {"alias": "halal", "title": "Halal"}], "rating": 4.2, "coordinates": {"latitude": 40.729513, "longitude": -74.001138}, "transactions": ["pickup", "delivery"], "price": "$$", "location": {"address1": "95 Macdougal St", "address2": "", "address3": null, "city": "New York", "zip_code": "10012", "country": "US", "state": "NY", "display_address": ["95 Macdougal St", "New York, NY 10012"]}, "phone": "+12127772888", "display_phone": "(212) 777-2888", "distance": 2742.2734737721617}, {"id": "GNPne4Il-itbn2sLbvMo1g", "alias": "angel-indian-restaurant-jackson-heights", "name": "Angel Indian Restaurant", "image_url": "https://s3-media2.fl.yelpcdn.com/bphoto/FM08_xYcbq_xASi7K2xAog/o.jpg", "is_closed": false, "url": "https://www.yelp.com/biz/angel-indian-restaurant-jackson-heights?adjust_creative=vRqJPoybBmrapOJofP44Nw&utm_campaign=yelp_api_v3&utm_medium=api_v3_business_search&utm_source=vRqJPoybBmrapOJofP44Nw", "review_count": 453, "categories": [{"alias": "indpak", "title": "Indian"}, {"alias": "vegetarian", "title": "Vegetarian"}], "rating": 4.6, "coordinates": {"latitude": 40.7473069226623, "longitude": -73.8912814123575}, "transactions": ["pickup", "delivery"], "price": "$$", "location": {"address1": "7414 37th Rd", "address2": "", "address3": null, "city": "Jackson Heights", "zip_code": "11372", "country": "US", "state": "NY", "display_address": ["7414 37th Rd", "Jackson Heights, NY 11372"]}, "phone": "+13478480097", "display_phone": "(347) 848-0097", "distance": 9849.818398222575}, {"id": "kS2CP48K66yL2TwIhUqy_A", "alias": "tamarind-new-york-4", "name": "Tamarind", "image_url": "https://s3-media3.fl.yelpcdn.com/bphoto/0zgXNwL18E52i95zE7CwvQ/o.jpg", "is_closed": false, "url": "https://www.yelp.com/biz/tamarind-new-york-4?adjust_creative=vRqJPoybBmrapOJofP44Nw&utm_campaign=yelp_api_v3&utm_medium=api_v3_business_search&utm_source=vRqJPoybBmrapOJofP44Nw", "review_count": 1148, "categories": [{"alias": "indpak", "title": "Indian"}], "rating": 3.9, "coordinates": {"latitude": 40.71909, "longitude": -74.00892}, "transactions": ["pickup", "delivery"], "price": "$$$", "location": {"address1": "99 Hudson St", "address2": "", "address3": "", "city": "New York", "zip_code": "10013", "country": "US", "state": "NY", "display_address": ["99 Hudson St", "New York, NY 10013"]}, "phone": "+12127759000", "display_phone": "(212) 775-9000", "distance": 1961.024707084221}, {"id": "9pMhRYYgV7E9L7pzECtJKA", "alias": "the-drunken-munkey-ues-new-york", "name": "The Drunken Munkey - UES", "image_url": "https://s3-media2.fl.yelpcdn.com/bphoto/GgyYVXAY1-AFFZHYeBa6dQ/o.jpg", "is_closed": false, "url": "https://www.yelp.com/biz/the-drunken-munkey-ues-new-york?adjust_creative=vRqJPoybBmrapOJofP44Nw&utm_campaign=yelp_api_v3&utm_medium=api_v3_business_search&utm_source=vRqJPoybBmrapOJofP44Nw", "review_count": 1384, "categories": [{"alias": "indpak", "title": "Indian"}, {"alias": "cocktailbars", "title": "Cocktail Bars"}], "rating": 4.3, "coordinates": {"latitude": 40.78098, "longitude": -73.94751}, "transactions": ["pickup", "delivery", "restaurant_reservation"], "price": "$$", "location": {"address1": "338 E 92nd St", "address2": null, "address3": "", "city": "New York", "zip_code": "10128", "country": "US", "state": "NY", "display_address": ["338 E 92nd St", "New York, NY 10128"]}, "phone": "+16468468986", "display_phone": "(646) 846-8986", "distance": 9259.57479406468}, {"id": "YDtIHtfvWd4W36wq6UAjoA", "alias": "kitchen-grill-indian-restaurant-brooklyn", "name": "Kitchen Grill", "image_url": "https://s3-media2.fl.yelpcdn.com/bphoto/VtbRfMtUIlSv1-gky6m4BA/o.jpg", "is_closed": false, "url": "https://www.yelp.com/biz/kitchen-grill-indian-restaurant-brooklyn?adjust_creative=vRqJPoybBmrapOJofP44Nw&utm_campaign=yelp_api_v3&utm_medium=api_v3_business_search&utm_source=vRqJPoybBmrapOJofP44Nw", "review_count": 340, "categories": [{"alias": "indpak", "title": "Indian"}], "rating": 4.4, "coordinates": {"latitude": 40.6827929, "longitude": -73.9644377}, "transactions": ["pickup", "delivery"], "price": "$$", "location": {"address1": "914 A Fulton St", "address2": "", "address3": "", "city": "Brooklyn", "zip_code": "11238", "country": "US", "state": "NY", "display_address": ["914 A Fulton St", "Brooklyn, NY 11238"]}, "phone": "+17187897800", "display_phone": "(718) 789-7800", "distance": 3560.8771485704174}, {"id": "iXSuNKKUBIrBX7zUerlQDQ", "alias": "benares-new-york-3", "name": "Benares", "image_url": "https://s3-media3.fl.yelpcdn.com/bphoto/02ev2tUDuz86hPhPxMEgFQ/o.jpg", "is_closed": false, "url": "https://www.yelp.com/biz/benares-new-york-3?adjust_creative=vRqJPoybBmrapOJofP44Nw&utm_campaign=yelp_api_v3&utm_medium=api_v3_business_search&utm_source=vRqJPoybBmrapOJofP44Nw", "review_count": 660, "categories": [{"alias": "indpak", "title": "Indian"}], "rating": 4.0, "coordinates": {"latitude": 40.71415, "longitude": -74.009209}, "transactions": ["pickup", "delivery"], "price": "$$", "location": {"address1": "45 Murray St", "address2": "", "address3": null, "city": "New York", "zip_code": "10007", "country": "US", "state": "NY", "display_address": ["45 Murray St", "New York, NY 10007"]}, "phone": "+12127664900", "display_phone": "(212) 766-4900", "distance": 1586.6858833225635}, {"id": "qhXIW0LDT4XsoN2IE6dZHg", "alias": "ahimsa-new-york-5", "name": "Ahimsa", "image_url": "https://s3-media2.fl.yelpcdn.com/bphoto/5seQWNcu8rGqYXf_EBUC8g/o.jpg", "is_closed": false, "url": "https://www.yelp.com/biz/ahimsa-new-york-5?adjust_creative=vRqJPoybBmrapOJofP44Nw&utm_campaign=yelp_api_v3&utm_medium=api_v3_business_search&utm_source=vRqJPoybBmrapOJofP44Nw", "review_count": 228, "categories": [{"alias": "indpak", "title": "Indian"}, {"alias": "vegetarian", "title": "Vegetarian"}, {"alias": "kosher", "title": "Kosher"}], "rating": 4.4, "coordinates": {"latitude": 40.7478959, "longitude": -73.9758638}, "transactions": ["pickup", "delivery"], "price": "$$", "location": {"address1": "204 E 38th St", "address2": "", "address3": null, "city": "New York", "zip_code": "10016", "country": "US", "state": "NY", "display_address": ["204 E 38th St", "New York, NY 10016"]}, "phone": "+12122282022", "display_phone": "(212) 228-2022", "distance": 4969.238437082293}, {"id": "Gni26uzPdfkCSagKEcFP2g", "alias": "lore-brooklyn", "name": "Lore", "image_url": "https://s3-media1.fl.yelpcdn.com/bphoto/OrMf4euN7JyI8UfGFHMfiQ/o.jpg", "is_closed": false, "url": "https://www.yelp.com/biz/lore-brooklyn?adjust_creative=vRqJPoybBmrapOJofP44Nw&utm_campaign=yelp_api_v3&utm_medium=api_v3_business_search&utm_source=vRqJPoybBmrapOJofP44Nw", "review_count": 80, "categories": [{"alias": "indpak", "title": "Indian"}, {"alias": "salad", "title": "Salad"}, {"alias": "cocktailbars", "title": "Cocktail Bars"}], "rating": 4.4, "coordinates": {"latitude": 40.66316670737584, "longitude": -73.9845233117843}, "transactions": [], "location": {"address1": "441 7th Ave", "address2": "", "address3": null, "city": "Brooklyn", "zip_code": "11215", "country": "US", "state": "NY", "display_address": ["441 7th Ave", "Brooklyn, NY 11215"]}, "phone": "+13475990300", "display_phone": "(347) 599-0300", "distance": 4772.745386036024}]