[{"id": "AudBWxeAr3zHr1ITrTcVpg", "alias": "izakaya-fuku-jackson-heights", "name": "Izakaya Fuku", "image_url": "https://s3-media1.fl.yelpcdn.com/bphoto/mVURSCqR6QzJWZmi2CoWbQ/o.jpg", "is_closed": false, "url": "https://www.yelp.com/biz/izakaya-fuku-jackson-heights?adjust_creative=vRqJPoybBmrapOJofP44Nw&utm_campaign=yelp_api_v3&utm_medium=api_v3_business_search&utm_source=vRqJPoybBmrapOJofP44Nw", "review_count": 319, "categories": [{"alias": "japanese", "title": "Japanese"}], "rating": 4.4, "coordinates": {"latitude": 40.74640809234451, "longitude": -73.8938844}, "transactions": ["delivery", "restaurant_reservation", "pickup"], "price": "$$", "location": {"address1": "71-28 Roosevelt Ave", "address2": null, "address3": "", "city": "Jackson Heights", "zip_code": "11372", "country": "US", "state": "NY", "display_address": ["71-28 Roosevelt Ave", "Jackson Heights, NY 11372"]}, "phone": "+17182551120", "display_phone": "(718) 255-1120", "distance": 9609.341910145966}, {"id": "XfOCJ841dL9fPBY_BAyayA", "alias": "soboku-brooklyn", "name": "SOBOKU", "image_url": "https://s3-media3.fl.yelpcdn.com/bphoto/QVgGkxMPo_UHRYxJAG3trg/o.jpg", "is_closed": false, "url": "https://www.yelp.com/biz/soboku-brooklyn?adjust_creative=vRqJPoybBmrapOJofP44Nw&utm_campaign=yelp_api_v3&utm_medium=api_v3_business_search&utm_source=vRqJPoybBmrapOJofP44Nw", "review_count": 59, "categories": [{"alias": "japanese", "title": "Japanese"}], "rating": 4.7, "coordinates": {"latitude": 40.682529, "longitude": -73.99346}, "transactions": ["delivery", "pickup"], "location": {"address1": "276 Smith St", "address2": null, "address3": "", "city": "Brooklyn", "zip_code": "11231", "country": "US", "state": "NY", "display_address": ["276 Smith St", "Brooklyn, NY 11231"]}, "phone": "+19179090328", "display_phone": "(917) 909-0328", "distance": 2545.966278276863}, {"id": "axqp3pGJXnTLgq2QrPyDyQ", "alias": "benemon-new-york", "name": "Benemon", "image_url": "https://s3-media3.fl.yelpcdn.com/bphoto/5ZRHsFgkyoSzac8ofvhvvg/o.jpg", "is_closed": false, "url": "https://www.yelp.com/biz/benemon-new-york?adjust_creative=vRqJPoybBmrapOJofP44Nw&utm_campaign=yelp_api_v3&utm_medium=api_v3_business_search&utm_source=vRqJPoybBmrapOJofP44Nw", "review_count": 724, "categories": [{"alias": "japanese", "title": "Japanese"}, {"alias": "tapasmallplates", "title": "Tapas/Small Plates"}, {"alias": "cocktailbars", "title": "Cocktail Bars"}], "rating": 4.3, "coordinates": {"latitude": 40.72551, "longitude": -73.98838}, "transactions": ["delivery", "pickup"], "price": "$$", "location": {"address1": "108 E 4th St", "address2": null, "address3": "", "city": "New York", "zip_code": "10003", "country": "US", "state": "NY", "display_address": ["108 E 4th St", "New York, NY 10003"]}, "phone": "+12126143006", "display_phone": "(212) 614-3006", "distance": 2289.2038585586733}, {"id": "dUfKnUnwaYKciyoRzDBLEw", "alias": "izakaya-nana-flushing", "name": "Izakaya Nana", "image_url": "https://s3-media2.fl.yelpcdn.com/bphoto/uqKmQyRQa-r-MKw1Dip4kw/o.jpg", "is_closed": false, "url": "https://www.yelp.com/biz/izakaya-nana-flushing?adjust_creative=vRqJPoybBmrapOJofP44Nw&utm_campaign=yelp_api_v3&utm_medium=api_v3_business_search&utm_source=vRqJPoybBmrapOJofP44Nw", "review_count": 564, "categories": [{"alias": "izakaya", "title": "Izakaya"}], "rating": 4.4, "coordinates": {"latitude": 40.764116, "longitude": -73.824724}, "transactions": ["delivery", "restaurant_reservation", "pickup"], "price": "$$$", "location": {"address1": "141-26 Northern Blvd", "address2": null, "address3": "", "city": "Flushing", "zip_code": "11354", "country": "US", "state": "NY", "display_address": ["141-26 Northern Blvd", "Flushing, NY 11354"]}, "phone": "+17182696866", "display_phone": "(718) 269-6866", "distance": 15706.481209314556}, {"id": "FlZ1zdVEKWv7dwqm8Uw8-w", "alias": "raku-new-york-7", "name": "Raku", "image_url": "https://s3-media4.fl.yelpcdn.com/bphoto/GEbZnH1jR4n7D5WOJ3urPg/o.jpg", "is_closed": false, "url": "https://www.yelp.com/biz/raku-new-york-7?adjust_creative=vRqJPoybBmrapOJofP44Nw&utm_campaign=yelp_api_v3&utm_medium=api_v3_business_search&utm_source=vRqJPoybBmrapOJofP44Nw", "review_count": 1632, "categories": [{"alias": "japanese", "title": "Japanese"}, {"alias": "noodles", "title": "Noodles"}], "rating": 4.5, "coordinates": {"latitude": 40.7264988089246, "longitude": -73.9866526052356}, "transactions": ["delivery", "pickup"], "price": "$$", "location": {"address1": "342 E 6th St", "address2": "", "address3": "", "city": "New York", "zip_code": "10003", "country": "US", "state": "NY", "display_address": ["342 E 6th St", "New York, NY 10003"]}, "phone": "+12122281324", "display_phone": "(212) 228-1324", "distance": 2428.0392489129867}, {"id": "v8y7NLCC25KY_lSbcs3UPA", "alias": "maison-kintaro-new-york-2", "name": "Maison Kintaro", "image_url": "https://s3-media2.fl.yelpcdn.com/bphoto/_tlO87o5rwgt-eS-kgTCCQ/o.jpg", "is_closed": false, "url": "https://www.yelp.com/biz/maison-kintaro-new-york-2?adjust_creative=vRqJPoybBmrapOJofP44Nw&utm_campaign=yelp_api_v3&utm_medium=api_v3_business_search&utm_source=vRqJPoybBmrapOJofP44Nw", "review_count": 95, "categories": [{"alias": "japanese", "title": "Japanese"}], "rating": 4.4, "coordinates": {"latitude": 40.747442163550275, "longitude": -74.00123431589748}, "transactions": ["delivery", "pickup"], "location": {"address1": "401 W 24th St", "address2": null, "address3": null, "city": "New York", "zip_code": "10011", "country": "US", "state": "NY", "display_address": ["401 W 24th St", "New York, NY 10011"]}, "phone": "+13152304533", "display_phone": "(315) 230-4533", "distance": 4706.36891041943}, {"id": "j-r95E-S2GUyoR2b6MTqpA", "alias": "ozakaya-brooklyn", "name": "Ozakaya", "image_url": "https://s3-media2.fl.yelpcdn.com/bphoto/iG7S34azk5e9isqpEQY3nw/o.jpg", "is_closed": false, "url": "https://www.yelp.com/biz/ozakaya-brooklyn?adjust_creative=vRqJPoybBmrapOJofP44Nw&utm_campaign=yelp_api_v3&utm_medium=api_v3_business_search&utm_source=vRqJPoybBmrapOJofP44Nw", "review_count": 186, "categories": [{"alias": "izakaya", "title": "Izakaya"}, {"alias": "sushi", "title": "Sushi Bars"}], "rating": 4.4, "coordinates": {"latitude": 40.67807, "longitude": -73.96851}, "transactions": ["delivery", "pickup"], "location": {"address1": "635 Vanderbilt Ave", "address2": null, "address3": "", "city": "Brooklyn", "zip_code": "11238", "country": "US", "state": "NY", "display_address": ["635 Vanderbilt Ave", "Brooklyn, NY 11238"]}, "phone": "+19294565956", "display_phone": "(929) 456-5956", "distance": 3747.053608302491}, {"id": "n7hfvvUtzeaLwKCGVegALQ", "alias": "konban-new-york", "name": "Konban", "image_url": "https://s3-media3.fl.yelpcdn.com/bphoto/VQfv5t48krAlCZwQLRYk3Q/o.jpg", "is_closed": false, "url": "https://www.yelp.com/biz/konban-new-york?adjust_creative=vRqJPoybBmrapOJofP44Nw&utm_campaign=yelp_api_v3&utm_medium=api_v3_business_search&utm_source=vRqJPoybBmrapOJofP44Nw", "review_count": 76, "categories": [{"alias": "izakaya", "title": "Izakaya"}], "rating": 4.4, "coordinates": {"latitude": 40.741979, "longitude": -74.001592}, "transactions": [], "location": {"address1": "311 W 17th St", "address2": "", "address3": null, "city": "New York", "zip_code": "10011", "country": "US", "state": "NY", "display_address": ["311 W 17th St", "New York, NY 10011"]}, "phone": "+19176756070", "display_phone": "(917) 675-6070", "distance": 4112.5407082472275}, {"id": "7OMGEtFWT6sdd9TVuoGqJQ", "alias": "okonomi-brooklyn", "name": "Okonomi", "image_url": "https://s3-media3.fl.yelpcdn.com/bphoto/JghJyl962_3PErNXsFOJPw/o.jpg", "is_closed": false, "url": "https://www.yelp.com/biz/okonomi-brooklyn?adjust_creative=vRqJPoybBmrapOJofP44Nw&utm_campaign=yelp_api_v3&utm_medium=api_v3_business_search&utm_source=vRqJPoybBmrapOJofP44Nw", "review_count": 541, "categories": [{"alias": "japanese", "title": "Japanese"}, {"alias": "seafood", "title": "Seafood"}], "rating": 4.3, "coordinates": {"latitude": 40.712622, "longitude": -73.9487843}, "transactions": ["delivery", "pickup"], "price": "$$$", "location": {"address1": "150 Ainslie St", "address2": "", "address3": "", "city": "Brooklyn", "zip_code": "11211", "country": "US", "state": "NY", "display_address": ["150 Ainslie St", "Brooklyn, NY 11211"]}, "phone": "+19292950480", "display_phone": "(929) 295-0480", "distance": 3918.0469578683437}, {"id": "k8YJDry6_pbPIiCPeK-6mQ", "alias": "mikado-brooklyn", "name": "Mikado", "image_url": "https://s3-media2.fl.yelpcdn.com/bphoto/MNIqGYuoC8okzgk4F6_ZZQ/o.jpg", "is_closed": false, "url": "https://www.yelp.com/biz/mikado-brooklyn?adjust_creative=vRqJPoybBmrapOJofP44Nw&utm_campaign=yelp_api_v3&utm_medium=api_v3_business_search&utm_source=vRqJPoybBmrapOJofP44Nw", "review_count": 60, "categories": [{"alias": "japanese", "title": "Japanese"}, {"alias": "sushi", "title": "Sushi Bars"}, {"alias": "soup", "title": "Soup"}], "rating": 4.7, "coordinates": {"latitude": 40.69032888195518, "longitude": -73.9938121}, "transactions": ["delivery", "pickup"], "location": {"address1": "177 Atlantic Ave", "address2": null, "address3": "", "city": "Brooklyn", "zip_code": "11201", "country": "US", "state": "NY", "display_address": ["177 Atlantic Ave", "Brooklyn, NY 11201"]}, "phone": "+12123811388", "display_phone": "(212) 381-1388", "distance": 1681.3079927847778}, {"id": "eQ4QUGvuHGBzsOrphsVc6A", "alias": "kimura-new-york", "name": "Kimura", "image_url": "https://s3-media3.fl.yelpcdn.com/bphoto/mljczn7werHwgQX7_cF-rA/o.jpg", "is_closed": false, "url": "https://www.yelp.com/biz/kimura-new-york?adjust_creative=vRqJPoybBmrapOJofP44Nw&utm_campaign=yelp_api_v3&utm_medium=api_v3_business_search&utm_source=vRqJPoybBmrapOJofP44Nw", "review_count": 423, "categories": [{"alias": "japanese", "title": "Japanese"}, {"alias": "hotpot", "title": "Hot Pot"}, {"alias": "sushi", "title": "Sushi Bars"}], "rating": 4.5, "coordinates": {"latitude": 40.72904325062745, "longitude": -73.9882174}, "transactions": ["delivery", "pickup"], "price": "$$$", "location": {"address1": "31 St Marks Pl", "address2": null, "address3": "", "city": "New York", "zip_code": "10003", "country": "US", "state": "NY", "display_address": ["31 St Marks Pl", "New York, NY 10003"]}, "phone": "+19179051864", "display_phone": "(917) 905-1864", "distance": 2673.514077019626}, {"id": "9QK3vhI04Q8ylqk49C3JcQ", "alias": "rule-of-thirds-brooklyn", "name": "Rule of Thirds", "image_url": "https://s3-media3.fl.yelpcdn.com/bphoto/qLyoUxBjHqg7P54kaOze-w/o.jpg", "is_closed": false, "url": "https://www.yelp.com/biz/rule-of-thirds-brooklyn?adjust_creative=vRqJPoybBmrapOJofP44Nw&utm_campaign=yelp_api_v3&utm_medium=api_v3_business_search&utm_source=vRqJPoybBmrapOJofP44Nw", "review_count": 648, "categories": [{"alias": "japanese", "title": "Japanese"}, {"alias": "breakfast_brunch", "title": "Breakfast & Brunch"}, {"alias": "cocktailbars", "title": "Cocktail Bars"}], "rating": 4.0, "coordinates": {"latitude": 40.724706, "longitude": -73.955017}, "transactions": ["delivery", "pickup"], "location": {"address1": "171 Banker St", "address2": null, "address3": null, "city": "Brooklyn", "zip_code": "11222", "country": "US", "state": "NY", "display_address": ["171 Banker St", "Brooklyn, NY 11222"]}, "phone": "+13473346684", "display_phone": "(347) 334-6684", "distance": 3944.454297372159}, {"id": "kesYSgOJW5krU6L8n9qQ4Q", "alias": "ichibantei-new-york", "name": "Ichibantei", "image_url": "https://s3-media2.fl.yelpcdn.com/bphoto/syVfmMRovMpJiPXLs4EUyQ/o.jpg", "is_closed": false, "url": "https://www.yelp.com/biz/ichibantei-new-york?adjust_creative=vRqJPoybBmrapOJofP44Nw&utm_campaign=yelp_api_v3&utm_medium=api_v3_business_search&utm_source=vRqJPoybBmrapOJofP44Nw", "review_count": 313, "categories": [{"alias": "japanese", "title": "Japanese"}, {"alias": "steak", "title": "Steakhouses"}], "rating": 3.9, "coordinates": {"latitude": 40.73259680054533, "longitude": -73.9880024}, "transactions": ["delivery", "pickup"], "price": "$$", "location": {"address1": "100 3rd Ave", "address2": "", "address3": "", "city": "New York", "zip_code": "10003", "country": "US", "state": "NY", "display_address": ["100 3rd Ave", "New York, NY 10003"]}, "phone": "+19179652327", "display_phone": "(917) 965-2327", "distance": 3065.3498922380118}, {"id": "GG72AwlaBM90YdLvRJliFg", "alias": "dashi-okume-brooklyn-2", "name": "Dashi Okume", "image_url": "https://s3-media4.fl.yelpcdn.com/bphoto/6wvRF7HAA-DPgv9BRwIhsA/o.jpg", "is_closed": false, "url": "https://www.yelp.com/biz/dashi-okume-brooklyn-2?adjust_creative=vRqJPoybBmrapOJofP44Nw&utm_campaign=yelp_api_v3&utm_medium=api_v3_business_search&utm_source=vRqJPoybBmrapOJofP44Nw", "review_count": 32, "categories": [{"alias": "japanese", "title": "Japanese"}], "rating": 4.3, "coordinates": {"latitude": 40.72466, "longitude": -73.95365}, "transactions": [], "location": {"address1": "50 Norman Ave", "address2": "", "address3": null, "city": "Brooklyn", "zip_code": "11222", "country": "US", "state": "NY", "display_address": ["50 Norman Ave", "Brooklyn, NY 11222"]}, "phone": "+16464342912", "display_phone": "(646) 434-2912", "distance": 4031.8591484686494}, {"id": "kN3rkbjvqkY62CDRYUVz4g", "alias": "yopparai-new-york", "name": "Yopparai", "image_url": "https://s3-media1.fl.yelpcdn.com/bphoto/-Dz8UMOELWlFJTjcXZQy6w/o.jpg", "is_closed": false, "url": "https://www.yelp.com/biz/yopparai-new-york?adjust_creative=vRqJPoybBmrapOJofP44Nw&utm_campaign=yelp_api_v3&utm_medium=api_v3_business_search&utm_source=vRqJPoybBmrapOJofP44Nw", "review_count": 267, "categories": [{"alias": "izakaya", "title": "Izakaya"}], "rating": 4.3, "coordinates": {"latitude": 40.71975013980203, "longitude": -73.98488557728082}, "transactions": ["delivery", "pickup"], "price": "$$$", "location": {"address1": "49 Clinton St", "address2": "Ground Floor", "address3": "", "city": "New York", "zip_code": "10002", "country": "US", "state": "NY", "display_address": ["49 Clinton St", "Ground Floor", "New York, NY 10002"]}, "phone": "+12127777253", "display_phone": "(212) 777-7253", "distance": 1777.3461458589393}, {"id": "klAhw3xLQi9GF1tf_HnS7w", "alias": "izakaya-mew-new-york-3", "name": "Izakaya MEW", "image_url": "https://s3-media4.fl.yelpcdn.com/bphoto/-56mpvzUi0nfYADw2uQXhg/o.jpg", "is_closed": false, "url": "https://www.yelp.com/biz/izakaya-mew-new-york-3?adjust_creative=vRqJPoybBmrapOJofP44Nw&utm_campaign=yelp_api_v3&utm_medium=api_v3_business_search&utm_source=vRqJPoybBmrapOJofP44Nw", "review_count": 2954, "categories": [{"alias": "tapas", "title": "Tapas Bars"}, {"alias": "sushi", "title": "Sushi Bars"}, {"alias": "izakaya", "title": "Izakaya"}], "rating": 4.3, "coordinates": {"latitude": 40.750148, "longitude": -73.9863203465939}, "transactions": ["delivery", "pickup"], "price": "$$", "location": {"address1": "53 W 35th St", "address2": "", "address3": "", "city": "New York", "zip_code": "10001", "country": "US", "state": "NY", "display_address": ["53 W 35th St", "New York, NY 10001"]}, "phone": "+16463689384", "display_phone": "(646) 368-9384", "distance": 5015.952903788343}, {"id": "jcffHQEBowxqb0z1xXxiLA", "alias": "toriya-new-york", "name": "Toriya", "image_url": "https://s3-media1.fl.yelpcdn.com/bphoto/b4udEMhOj1hZaWnhxFzJ-Q/o.jpg", "is_closed": false, "url": "https://www.yelp.com/biz/toriya-new-york?adjust_creative=vRqJPoybBmrapOJofP44Nw&utm_campaign=yelp_api_v3&utm_medium=api_v3_business_search&utm_source=vRqJPoybBmrapOJofP44Nw", "review_count": 27, "categories": [{"alias": "izakaya", "title": "Izakaya"}, {"alias": "tapasmallplates", "title": "Tapas/Small Plates"}], "rating": 4.9, "coordinates": {"latitude": 40.72017, "longitude": -73.98399}, "transactions": ["delivery", "restaurant_reservation", "pickup"], "location": {"address1": "178 Stanton St", "address2": null, "address3": "", "city": "New York", "zip_code": "10002", "country": "US", "state": "NY", "display_address": ["178 Stanton St", "New York, NY 10002"]}, "phone": "+16465590559", "display_phone": "(646) 559-0559", "distance": 1859.1922278891238}, {"id": "qEe7nIhPfEL6L0-VYhWRrA", "alias": "raku-new-york-6", "name": "Raku", "image_url": "https://s3-media1.fl.yelpcdn.com/bphoto/uJUyb5gO9Cc5RQbB5BtIjw/o.jpg", "is_closed": false, "url": "https://www.yelp.com/biz/raku-new-york-6?adjust_creative=vRqJPoybBmrapOJofP44Nw&utm_campaign=yelp_api_v3&utm_medium=api_v3_business_search&utm_source=vRqJPoybBmrapOJofP44Nw", "review_count": 961, "categories": [{"alias": "japanese", "title": "Japanese"}, {"alias": "noodles", "title": "Noodles"}], "rating": 4.5, "coordinates": {"latitude": 40.7272479, "longitude": -74.00253944171621}, "transactions": ["delivery", "pickup"], "price": "$$", "location": {"address1": "48 Macdougal St", "address2": null, "address3": "", "city": "New York", "zip_code": "10012", "country": "US", "state": "NY", "display_address": ["48 Macdougal St", "New York, NY 10012"]}, "phone": "+12129894797", "display_phone": "(212) 989-4797", "distance": 2522.0333124040876}, {"id": "W0YGwDTYRjUCBgtpqHXSAg", "alias": "iwak-brooklyn", "name": "IWak", "image_url": "https://s3-media1.fl.yelpcdn.com/bphoto/JesScm4DuPkRvpUZyJhkSA/o.jpg", "is_closed": false, "url": "https://www.yelp.com/biz/iwak-brooklyn?adjust_creative=vRqJPoybBmrapOJofP44Nw&utm_campaign=yelp_api_v3&utm_medium=api_v3_business_search&utm_source=vRqJPoybBmrapOJofP44Nw", "review_count": 72, "categories": [{"alias": "sushi", "title": "Sushi Bars"}], "rating": 4.8, "coordinates": {"latitude": 40.71244591155105, "longitude": -73.95622518519129}, "transactions": ["delivery", "pickup"], "location": {"address1": "340 Grand St", "address2": null, "address3": "", "city": "Brooklyn", "zip_code": "11211", "country": "US", "state": "NY", "display_address": ["340 Grand St", "Brooklyn, NY 11211"]}, "phone": "+19299924925", "display_phone": "(929) 992-4925", "distance": 3301.8111491118916}, {"id": "pNe8ZCkGTe4cXfKdOF7kYQ", "alias": "ise-restaurant-new-york-3", "name": "Ise Restaurant", "image_url": "https://s3-media2.fl.yelpcdn.com/bphoto/S5SGXwZfHG8Esw2x9-CF4A/o.jpg", "is_closed": false, "url": "https://www.yelp.com/biz/ise-restaurant-new-york-3?adjust_creative=vRqJPoybBmrapOJofP44Nw&utm_campaign=yelp_api_v3&utm_medium=api_v3_business_search&utm_source=vRqJPoybBmrapOJofP44Nw", "review_count": 658, "categories": [{"alias": "japanese", "title": "Japanese"}, {"alias": "sushi", "title": "Sushi Bars"}], "rating": 4.3, "coordinates": {"latitude": 40.7291024, "longitude": -73.9900618}, "transactions": ["delivery", "restaurant_reservation", "pickup"], "price": "$$", "location": {"address1": "63 Cooper Sq", "address2": null, "address3": "", "city": "New York", "zip_code": "10003", "country": "US", "state": "NY", "display_address": ["63 Cooper Sq", "New York, NY 10003"]}, "phone": "+12122284152", "display_phone": "(212) 228-4152", "distance": 2654.657529899308}, {"id": "kwq1W0opBnOYKoUXWYyQ5g", "alias": "momokawa-new-york-2", "name": "Momokawa", "image_url": "https://s3-media1.fl.yelpcdn.com/bphoto/mUsu5V_8ScS16Ctojx7sQg/o.jpg", "is_closed": false, "url": "https://www.yelp.com/biz/momokawa-new-york-2?adjust_creative=vRqJPoybBmrapOJofP44Nw&utm_campaign=yelp_api_v3&utm_medium=api_v3_business_search&utm_source=vRqJPoybBmrapOJofP44Nw", "review_count": 249, "categories": [{"alias": "japanese", "title": "Japanese"}, {"alias": "sushi", "title": "Sushi Bars"}, {"alias": "hotpot", "title": "Hot Pot"}], "rating": 4.0, "coordinates": {"latitude": 40.77050540898544, "longitude": -73.95374991870455}, "transactions": ["delivery", "pickup"], "price": "$$$", "location": {"address1": "1466 E 1st Ave", "address2": "", "address3": null, "city": "New York", "zip_code": "10075", "country": "US", "state": "NY", "display_address": ["1466 E 1st Ave", "New York, NY 10075"]}, "phone": "+12122560403", "display_phone": "(212) 256-0403", "distance": 8000.291189438246}, {"id": "Ec8VntMXiRFa13xJwDQ5jQ", "alias": "bbf-new-york-6", "name": "BBF", "image_url": "https://s3-media2.fl.yelpcdn.com/bphoto/nsCGqpHxPqS88ip1DwbYxQ/o.jpg", "is_closed": false, "url": "https://www.yelp.com/biz/bbf-new-york-6?adjust_creative=vRqJPoybBmrapOJofP44Nw&utm_campaign=yelp_api_v3&utm_medium=api_v3_business_search&utm_source=vRqJPoybBmrapOJofP44Nw", "review_count": 6, "categories": [{"alias": "japanese", "title": "Japanese"}, {"alias": "sushi", "title": "Sushi Bars"}, {"alias": "cocktailbars", "title": "Cocktail Bars"}], "rating": 4.8, "coordinates": {"latitude": 40.72193214735155, "longitude": -73.98757495523977}, "transactions": [], "location": {"address1": "177 Ludlow St", "address2": "", "address3": null, "city": "New York", "zip_code": "10002", "country": "US", "state": "NY", "display_address": ["177 Ludlow St", "New York, NY 10002"]}, "phone": "+16466495363", "display_phone": "(646) 649-5363", "distance": 1918.7531341611243}, {"id": "BPZfuPvSxCfoppU4lPFm0Q", "alias": "domodomo-new-york-new-york-4", "name": "DOMODOMO - New York", "image_url": "https://s3-media1.fl.yelpcdn.com/bphoto/YX89PDM_-aBCL2USyNyhuw/o.jpg", "is_closed": false, "url": "https://www.yelp.com/biz/domodomo-new-york-new-york-4?adjust_creative=vRqJPoybBmrapOJofP44Nw&utm_campaign=yelp_api_v3&utm_medium=api_v3_business_search&utm_source=vRqJPoybBmrapOJofP44Nw", "review_count": 1610, "categories": [{"alias": "japanese", "title": "Japanese"}, {"alias": "sushi", "title": "Sushi Bars"}], "rating": 4.2, "coordinates": {"latitude": 40.7280299, "longitude": -74.00167}, "transactions": ["delivery"], "price": "$$$", "location": {"address1": "140 W Houston St", "address2": null, "address3": "", "city": "New York", "zip_code": "10012", "country": "US", "state": "NY", "display_address": ["140 W Houston St", "New York, NY 10012"]}, "phone": "+16467070301", "display_phone": "(646) 707-0301", "distance": 2584.2825548983697}, {"id": "lEH8EUPX3Zn_trHauIycYw", "alias": "aoi-kitchen-new-york", "name": "Aoi Kitchen", "image_url": "https://s3-media4.fl.yelpcdn.com/bphoto/Y1Zg1Hk9gxC4XeRCo5uuvg/o.jpg", "is_closed": false, "url": "https://www.yelp.com/biz/aoi-kitchen-new-york?adjust_creative=vRqJPoybBmrapOJofP44Nw&utm_campaign=yelp_api_v3&utm_medium=api_v3_business_search&utm_source=vRqJPoybBmrapOJofP44Nw", "review_count": 278, "categories": [{"alias": "izakaya", "title": "Izakaya"}, {"alias": "japacurry", "title": "Japanese Curry"}], "rating": 4.3, "coordinates": {"latitude": 40.72683167, "longitude": -73.98754333}, "transactions": [], "price": "$$", "location": {"address1": "320 E 6th St", "address2": "", "address3": null, "city": "New York", "zip_code": "10003", "country": "US", "state": "NY", "display_address": ["320 E 6th St", "New York, NY 10003"]}, "phone": "+16464540084", "display_phone": "(646) 454-0084", "distance": 2442.622359813582}, {"id": "72FarxYcWbvPfHC5IitJKg", "alias": "lingo-brooklyn", "name": "Lingo", "image_url": "https://s3-media3.fl.yelpcdn.com/bphoto/9z2neoxyOnGUJ_yzgnQS4w/o.jpg", "is_closed": false, "url": "https://www.yelp.com/biz/lingo-brooklyn?adjust_creative=vRqJPoybBmrapOJofP44Nw&utm_campaign=yelp_api_v3&utm_medium=api_v3_business_search&utm_source=vRqJPoybBmrapOJofP44Nw", "review_count": 53, "categories": [{"alias": "newamerican", "title": "New American"}, {"alias": "japanese", "title": "Japanese"}], "rating": 4.7, "coordinates": {"latitude": 40.7298, "longitude": -73.95971}, "transactions": [], "location": {"address1": "27 Greenpoint Ave", "address2": null, "address3": "", "city": "Brooklyn", "zip_code": "11222", "country": "US", "state": "NY", "display_address": ["27 Greenpoint Ave", "Brooklyn, NY 11222"]}, "phone": "+13475294584", "display_phone": "(347) 529-4584", "distance": 3981.957012398083}, {"id": "VdAVjghEq_Zl-DDte0mjrw", "alias": "acre-brooklyn", "name": "ACRE", "image_url": "https://s3-media4.fl.yelpcdn.com/bphoto/JUagc8yx49uPIYcPv6SJng/o.jpg", "is_closed": false, "url": "https://www.yelp.com/biz/acre-brooklyn?adjust_creative=vRqJPoybBmrapOJofP44Nw&utm_campaign=yelp_api_v3&utm_medium=api_v3_business_search&utm_source=vRqJPoybBmrapOJofP44Nw", "review_count": 138, "categories": [{"alias": "breakfast_brunch", "title": "Breakfast & Brunch"}, {"alias": "japanese", "title": "Japanese"}, {"alias": "coffee", "title": "Coffee & Tea"}], "rating": 4.5, "coordinates": {"latitude": 40.72633, "longitude": -73.95471}, "transactions": ["delivery", "pickup"], "price": "$$", "location": {"address1": "64 Meserole Ave", "address2": null, "address3": "", "city": "Brooklyn", "zip_code": "11222", "country": "US", "state": "NY", "display_address": ["64 Meserole Ave", "Brooklyn, NY 11222"]}, "phone": "+17189549074", "display_phone": "(718) 954-9074", "distance": 4062.4881140396897}, {"id": "jqqWifkyuTNlp5JA74d55w", "alias": "uzuki-brooklyn", "name": "Uzuki", "image_url": "https://s3-media3.fl.yelpcdn.com/bphoto/iC03sQwnJEl8HPq9pJ-cVA/o.jpg", "is_closed": false, "url": "https://www.yelp.com/biz/uzuki-brooklyn?adjust_creative=vRqJPoybBmrapOJofP44Nw&utm_campaign=yelp_api_v3&utm_medium=api_v3_business_search&utm_source=vRqJPoybBmrapOJofP44Nw", "review_count": 12, "categories": [{"alias": "japanese", "title": "Japanese"}], "rating": 4.1, "coordinates": {"latitude": 40.724498, "longitude": -73.95352}, "transactions": [], "location": {"address1": "95 Guernsey St", "address2": "", "address3": null, "city": "Brooklyn", "zip_code": "11222", "country": "US", "state": "NY", "display_address": ["95 Guernsey St", "Brooklyn, NY 11222"]}, "phone": "", "display_phone": "", "distance": 4042.7829703824527}, {"id": "RYKGs45OjF-vlb2Ds2Jb_g", "alias": "izakaya-juraku-new-york-2", "name": "Izakaya Juraku", "image_url": "https://s3-media4.fl.yelpcdn.com/bphoto/h9MS1kCmfo-r1uPsZjoaiA/o.jpg", "is_closed": false, "url": "https://www.yelp.com/biz/izakaya-juraku-new-york-2?adjust_creative=vRqJPoybBmrapOJofP44Nw&utm_campaign=yelp_api_v3&utm_medium=api_v3_business_search&utm_source=vRqJPoybBmrapOJofP44Nw", "review_count": 218, "categories": [{"alias": "bars", "title": "Bars"}, {"alias": "izakaya", "title": "Izakaya"}, {"alias": "ramen", "title": "Ramen"}], "rating": 4.4, "coordinates": {"latitude": 40.7196796287355, "longitude": -73.9887088537216}, "transactions": ["delivery", "pickup"], "price": "$$$", "location": {"address1": "121 Ludlow St", "address2": "", "address3": null, "city": "New York", "zip_code": "10002", "country": "US", "state": "NY", "display_address": ["121 Ludlow St", "New York, NY 10002"]}, "phone": "+12124770100", "display_phone": "(212) 477-0100", "distance": 1651.3305168112172}, {"id": "5ZgCfc1_fotAKUp7n3YJkQ", "alias": "towa-new-york-3", "name": "Towa", "image_url": "https://s3-media4.fl.yelpcdn.com/bphoto/BOoLPUB53FHS6mS3yNl6yw/o.jpg", "is_closed": false, "url": "https://www.yelp.com/biz/towa-new-york-3?adjust_creative=vRqJPoybBmrapOJofP44Nw&utm_campaign=yelp_api_v3&utm_medium=api_v3_business_search&utm_source=vRqJPoybBmrapOJofP44Nw", "review_count": 109, "categories": [{"alias": "japanese", "title": "Japanese"}, {"alias": "sushi", "title": "Sushi Bars"}, {"alias": "cocktailbars", "title": "Cocktail Bars"}], "rating": 4.4, "coordinates": {"latitude": 40.7442, "longitude": -73.99062}, "transactions": [], "price": "$$$", "location": {"address1": "36 W 26th St", "address2": null, "address3": "", "city": "New York", "zip_code": "10010", "country": "US", "state": "NY", "display_address": ["36 W 26th St", "New York, NY 10010"]}, "phone": "+16463516258", "display_phone": "(646) 351-6258", "distance": 4325.095740663214}, {"id": "eyjeP9CJZ_gYgeJFP_vtpQ", "alias": "karasu-brooklyn-2", "name": "Karasu", "image_url": "https://s3-media2.fl.yelpcdn.com/bphoto/-g9yW5Il8vWReHCFhiLdOQ/o.jpg", "is_closed": false, "url": "https://www.yelp.com/biz/karasu-brooklyn-2?adjust_creative=vRqJPoybBmrapOJofP44Nw&utm_campaign=yelp_api_v3&utm_medium=api_v3_business_search&utm_source=vRqJPoybBmrapOJofP44Nw", "review_count": 120, "categories": [{"alias": "japanese", "title": "Japanese"}, {"alias": "cocktailbars", "title": "Cocktail Bars"}], "rating": 4.0, "coordinates": {"latitude": 40.68937279085807, "longitude": -73.9732461}, "transactions": [], "price": "$$$", "location": {"address1": "166 Dekalb Ave", "address2": null, "address3": "Walter's", "city": "Brooklyn", "zip_code": "11217", "country": "US", "state": "NY", "display_address": ["166 Dekalb Ave", "Walter's", "Brooklyn, NY 11217"]}, "phone": "", "display_phone": "", "distance": 2518.3658841401493}, {"id": "pqqhHTz_ZpApsaWGa_zMTA", "alias": "douska-new-york", "name": "Douska", "image_url": "https://s3-media1.fl.yelpcdn.com/bphoto/SzeTe8Y7JENn1gNaSonRzA/o.jpg", "is_closed": false, "url": "https://www.yelp.com/biz/douska-new-york?adjust_creative=vRqJPoybBmrapOJofP44Nw&utm_campaign=yelp_api_v3&utm_medium=api_v3_business_search&utm_source=vRqJPoybBmrapOJofP44Nw", "review_count": 224, "categories": [{"alias": "sushi", "title": "Sushi Bars"}, {"alias": "japanese", "title": "Japanese"}], "rating": 4.4, "coordinates": {"latitude": 40.7191369, "longitude": -73.9908998}, "transactions": [], "location": {"address1": "63 Delancey St", "address2": "", "address3": null, "city": "New York", "zip_code": "10002", "country": "US", "state": "NY", "display_address": ["63 Delancey St", "New York, NY 10002"]}, "phone": "+16466570908", "display_phone": "(646) 657-0908", "distance": 1544.6963982812902}, {"id": "KrJ6m_TkxBAPPSNH-G7rvQ", "alias": "u-gu-brooklyn-4", "name": "U-gu", "image_url": "https://s3-media3.fl.yelpcdn.com/bphoto/xi4Z31T5IZx1qSgInM08pg/o.jpg", "is_closed": false, "url": "https://www.yelp.com/biz/u-gu-brooklyn-4?adjust_creative=vRqJPoybBmrapOJofP44Nw&utm_campaign=yelp_api_v3&utm_medium=api_v3_business_search&utm_source=vRqJPoybBmrapOJofP44Nw", "review_count": 194, "categories": [{"alias": "sushi", "title": "Sushi Bars"}, {"alias": "japanese", "title": "Japanese"}], "rating": 4.4, "coordinates": {"latitude": 40.69393, "longitude": -73.96284}, "transactions": ["delivery", "pickup"], "price": "$$", "location": {"address1": "541 Myrtle Ave", "address2": "Ste B", "address3": null, "city": "Brooklyn", "zip_code": "11205", "country": "US", "state": "NY", "display_address": ["541 Myrtle Ave", "Ste B", "Brooklyn, NY 11205"]}, "phone": "+17188570222", "display_phone": "(718) 857-0222", "distance": 2946.825651568673}, {"id": "XtIpLh4MHpMj5THctXQyIQ", "alias": "sip-and-guzzle-new-york", "name": "Sip & Guzzle", "image_url": "https://s3-media1.fl.yelpcdn.com/bphoto/Fs1v-0hLRtCNmP5p1pmXQA/o.jpg", "is_closed": false, "url": "https://www.yelp.com/biz/sip-and-guzzle-new-york?adjust_creative=vRqJPoybBmrapOJofP44Nw&utm_campaign=yelp_api_v3&utm_medium=api_v3_business_search&utm_source=vRqJPoybBmrapOJofP44Nw", "review_count": 30, "categories": [{"alias": "izakaya", "title": "Izakaya"}, {"alias": "cocktailbars", "title": "Cocktail Bars"}], "rating": 4.7, "coordinates": {"latitude": 40.73148842475859, "longitude": -74.0024921}, "transactions": [], "location": {"address1": "29 Cornelia St", "address2": "", "address3": null, "city": "New York", "zip_code": "10014", "country": "US", "state": "NY", "display_address": ["29 Cornelia St", "New York, NY 10014"]}, "phone": "+19172596974", "display_phone": "(917) 259-6974", "distance": 2977.20321632135}, {"id": "cT48RskMO_o35Ua0tlifyQ", "alias": "heno-heno-new-york-2", "name": "Heno Heno", "image_url": "https://s3-media2.fl.yelpcdn.com/bphoto/Mbj3ohufWkWmMIRfejctuw/o.jpg", "is_closed": false, "url": "https://www.yelp.com/biz/heno-heno-new-york-2?adjust_creative=vRqJPoybBmrapOJofP44Nw&utm_campaign=yelp_api_v3&utm_medium=api_v3_business_search&utm_source=vRqJPoybBmrapOJofP44Nw", "review_count": 152, "categories": [{"alias": "izakaya", "title": "Izakaya"}, {"alias": "sushi", "title": "Sushi Bars"}, {"alias": "bars", "title": "Bars"}], "rating": 4.3, "coordinates": {"latitude": 40.760512, "longitude": -73.990117}, "transactions": ["delivery", "restaurant_reservation", "pickup"], "location": {"address1": "358 W 46th St", "address2": null, "address3": "", "city": "New York", "zip_code": "10036", "country": "US", "state": "NY", "display_address": ["358 W 46th St", "New York, NY 10036"]}, "phone": "+16463988008", "display_phone": "(646) 398-8008", "distance": 6134.162281748901}, {"id": "jafF8w3CRDTu7ICjs9t-Qg", "alias": "sanuki-udon-new-york", "name": "Sanuki Udon", "image_url": "https://s3-media2.fl.yelpcdn.com/bphoto/vaBlqaJw5J6wELrBI8RpQw/o.jpg", "is_closed": false, "url": "https://www.yelp.com/biz/sanuki-udon-new-york?adjust_creative=vRqJPoybBmrapOJofP44Nw&utm_campaign=yelp_api_v3&utm_medium=api_v3_business_search&utm_source=vRqJPoybBmrapOJofP44Nw", "review_count": 61, "categories": [{"alias": "noodles", "title": "Noodles"}, {"alias": "japanese", "title": "Japanese"}], "rating": 3.9, "coordinates": {"latitude": 40.729226, "longitude": -73.995607}, "transactions": ["delivery", "pickup"], "location": {"address1": "31 W 4th St", "address2": null, "address3": "", "city": "New York", "zip_code": "10012", "country": "US", "state": "NY", "display_address": ["31 W 4th St", "New York, NY 10012"]}, "phone": "", "display_phone": "", "distance": 2654.4474578097775}, {"id": "PwrYnl3j3YCGzILX_5UHpw", "alias": "davelle-new-york-2", "name": "Davelle", "image_url": "https://s3-media1.fl.yelpcdn.com/bphoto/_-JehqxIwyd1h2wmDz4wQQ/o.jpg", "is_closed": false, "url": "https://www.yelp.com/biz/davelle-new-york-2?adjust_creative=vRqJPoybBmrapOJofP44Nw&utm_campaign=yelp_api_v3&utm_medium=api_v3_business_search&utm_source=vRqJPoybBmrapOJofP44Nw", "review_count": 473, "categories": [{"alias": "japanese", "title": "Japanese"}, {"alias": "breakfast_brunch", "title": "Breakfast & Brunch"}, {"alias": "cafes", "title": "Cafes"}], "rating": 4.2, "coordinates": {"latitude": 40.71852, "longitude": -73.98605}, "transactions": ["delivery", "pickup"], "price": "$$", "location": {"address1": "102 Suffolk St", "address2": "", "address3": null, "city": "New York", "zip_code": "10002", "country": "US", "state": "NY", "display_address": ["102 Suffolk St", "New York, NY 10002"]}, "phone": "+16469881973", "display_phone": "(646) 988-1973", "distance": 1612.1924185402318}, {"id": "i8ejDDR4COtukAAA1Ls5fw", "alias": "soba-ya-new-york", "name": "Soba-ya", "image_url": "https://s3-media3.fl.yelpcdn.com/bphoto/tRp07xFhPFLZ324K3WiZlQ/o.jpg", "is_closed": false, "url": "https://www.yelp.com/biz/soba-ya-new-york?adjust_creative=vRqJPoybBmrapOJofP44Nw&utm_campaign=yelp_api_v3&utm_medium=api_v3_business_search&utm_source=vRqJPoybBmrapOJofP44Nw", "review_count": 1574, "categories": [{"alias": "japanese", "title": "Japanese"}, {"alias": "noodles", "title": "Noodles"}], "rating": 3.8, "coordinates": {"latitude": 40.72965, "longitude": -73.9878899}, "transactions": ["delivery", "pickup"], "price": "$$", "location": {"address1": "229 E 9th St", "address2": "", "address3": "", "city": "New York", "zip_code": "10003", "country": "US", "state": "NY", "display_address": ["229 E 9th St", "New York, NY 10003"]}, "phone": "+12125336966", "display_phone": "(212) 533-6966", "distance": 2744.4836849113926}, {"id": "i8F0fnempD5fTb2CxbwKDw", "alias": "izakaya-new-york-2", "name": "Izakaya", "image_url": "https://s3-media2.fl.yelpcdn.com/bphoto/FHCms4PlmtuQJc4jo1wccw/o.jpg", "is_closed": false, "url": "https://www.yelp.com/biz/izakaya-new-york-2?adjust_creative=vRqJPoybBmrapOJofP44Nw&utm_campaign=yelp_api_v3&utm_medium=api_v3_business_search&utm_source=vRqJPoybBmrapOJofP44Nw", "review_count": 285, "categories": [{"alias": "izakaya", "title": "Izakaya"}, {"alias": "tapasmallplates", "title": "Tapas/Small Plates"}, {"alias": "ramen", "title": "Ramen"}], "rating": 4.2, "coordinates": {"latitude": 40.72667, "longitude": -73.98738}, "transactions": ["delivery", "pickup"], "price": "$$", "location": {"address1": "326 E 6th St", "address2": "", "address3": "", "city": "New York", "zip_code": "10003", "country": "US", "state": "NY", "display_address": ["326 E 6th St", "New York, NY 10003"]}, "phone": "+19176977162", "display_phone": "(917) 697-7162", "distance": 2437.9568274699823}, {"id": "22uB5xk1aXPwRi9mc6bmOQ", "alias": "ajisai-on-duane-new-york", "name": "Ajisai on Duane", "image_url": "https://s3-media4.fl.yelpcdn.com/bphoto/YkmcNTGNTo95GQurPswiVg/o.jpg", "is_closed": false, "url": "https://www.yelp.com/biz/ajisai-on-duane-new-york?adjust_creative=vRqJPoybBmrapOJofP44Nw&utm_campaign=yelp_api_v3&utm_medium=api_v3_business_search&utm_source=vRqJPoybBmrapOJofP44Nw", "review_count": 64, "categories": [{"alias": "japanese", "title": "Japanese"}, {"alias": "sushi", "title": "Sushi Bars"}, {"alias": "seafood", "title": "Seafood"}], "rating": 4.5, "coordinates": {"latitude": 40.717559, "longitude": -74.010202}, "transactions": ["delivery", "pickup"], "location": {"address1": "183 Duane St", "address2": null, "address3": "", "city": "New York", "zip_code": "10013", "country": "US", "state": "NY", "display_address": ["183 Duane St", "New York, NY 10013"]}, "phone": "+16464227828", "display_phone": "(646) 422-7828", "distance": 1899.9850549686828}, {"id": "J9UA6rzI5WW_cDGjwDnF5g", "alias": "tsuru-ton-tan-new-york", "name": "Tsuru Ton Tan", "image_url": "https://s3-media3.fl.yelpcdn.com/bphoto/CVq8bpY5_itOFVhwZKTbNg/o.jpg", "is_closed": false, "url": "https://www.yelp.com/biz/tsuru-ton-tan-new-york?adjust_creative=vRqJPoybBmrapOJofP44Nw&utm_campaign=yelp_api_v3&utm_medium=api_v3_business_search&utm_source=vRqJPoybBmrapOJofP44Nw", "review_count": 2344, "categories": [{"alias": "japanese", "title": "Japanese"}, {"alias": "noodles", "title": "Noodles"}, {"alias": "sushi", "title": "Sushi Bars"}], "rating": 3.8, "coordinates": {"latitude": 40.73678, "longitude": -73.9910699}, "transactions": ["delivery", "pickup"], "price": "$$", "location": {"address1": "21 E 16th St", "address2": "", "address3": "", "city": "New York", "zip_code": "10003", "country": "US", "state": "NY", "display_address": ["21 E 16th St", "New York, NY 10003"]}, "phone": "+12129891000", "display_phone": "(212) 989-1000", "distance": 3503.1155131500914}, {"id": "3QIFBLKp2Z9zA-PXlUEQlg", "alias": "okatte-tanto-ny-new-york", "name": "Okatte Tanto NY", "image_url": "https://s3-media4.fl.yelpcdn.com/bphoto/zMcbrSejic3cPb2yT6Rc4Q/o.jpg", "is_closed": false, "url": "https://www.yelp.com/biz/okatte-tanto-ny-new-york?adjust_creative=vRqJPoybBmrapOJofP44Nw&utm_campaign=yelp_api_v3&utm_medium=api_v3_business_search&utm_source=vRqJPoybBmrapOJofP44Nw", "review_count": 22, "categories": [{"alias": "japanese", "title": "Japanese"}], "rating": 4.6, "coordinates": {"latitude": 40.75455, "longitude": -73.96941}, "transactions": ["delivery"], "location": {"address1": "249 E 49th St", "address2": "", "address3": null, "city": "New York", "zip_code": "10017", "country": "US", "state": "NY", "display_address": ["249 E 49th St", "New York, NY 10017"]}, "phone": "+16469520364", "display_phone": "(646) 952-0364", "distance": 5860.678062725452}, {"id": "5llQecdr7h5XY2tNu405pg", "alias": "mikado-new-york-4", "name": "MIkado", "image_url": "https://s3-media2.fl.yelpcdn.com/bphoto/vzhxVZQoyPmqv0o_0l9Vvw/o.jpg", "is_closed": false, "url": "https://www.yelp.com/biz/mikado-new-york-4?adjust_creative=vRqJPoybBmrapOJofP44Nw&utm_campaign=yelp_api_v3&utm_medium=api_v3_business_search&utm_source=vRqJPoybBmrapOJofP44Nw", "review_count": 24, "categories": [{"alias": "sushi", "title": "Sushi Bars"}, {"alias": "japanese", "title": "Japanese"}], "rating": 4.3, "coordinates": {"latitude": 40.73794032945504, "longitude": -73.99744418855835}, "transactions": ["delivery", "pickup"], "location": {"address1": "109 W 14th St", "address2": null, "address3": "", "city": "New York", "zip_code": "10011", "country": "US", "state": "NY", "display_address": ["109 W 14th St", "New York, NY 10011"]}, "phone": "+12122559981", "display_phone": "(212) 255-9981", "distance": 3623.0710355090923}, {"id": "ax4INkzwL__-d_kGJfcA-w", "alias": "kaikagetsu-nyc-new-york-2", "name": "Kaikagetsu NYC", "image_url": "https://s3-media3.fl.yelpcdn.com/bphoto/GUt60CDqQJwGtifLhFIZ9A/o.jpg", "is_closed": false, "url": "https://www.yelp.com/biz/kaikagetsu-nyc-new-york-2?adjust_creative=vRqJPoybBmrapOJofP44Nw&utm_campaign=yelp_api_v3&utm_medium=api_v3_business_search&utm_source=vRqJPoybBmrapOJofP44Nw", "review_count": 146, "categories": [{"alias": "japanese", "title": "Japanese"}], "rating": 4.6, "coordinates": {"latitude": 40.72104, "longitude": -73.98848}, "transactions": ["delivery"], "price": "$$$$", "location": {"address1": "162 Orchard St", "address2": "", "address3": null, "city": "New York", "zip_code": "10002", "country": "US", "state": "NY", "display_address": ["162 Orchard St", "New York, NY 10002"]}, "phone": "+16465903900", "display_phone": "(646) 590-3900", "distance": 1800.6650070425846}, {"id": "diz6_4TVSP6EdWEZCZ0Acg", "alias": "kaoru-new-york", "name": "Kaoru", "image_url": "https://s3-media3.fl.yelpcdn.com/bphoto/7Xv6nQwtb07E_Z-GgqOfUw/o.jpg", "is_closed": false, "url": "https://www.yelp.com/biz/kaoru-new-york?adjust_creative=vRqJPoybBmrapOJofP44Nw&utm_campaign=yelp_api_v3&utm_medium=api_v3_business_search&utm_source=vRqJPoybBmrapOJofP44Nw", "review_count": 492, "categories": [{"alias": "japanese", "title": "Japanese"}], "rating": 4.3, "coordinates": {"latitude": 40.75202, "longitude": -73.96977}, "transactions": ["delivery", "pickup"], "price": "$$", "location": {"address1": "306 E 46th St", "address2": "", "address3": "", "city": "New York", "zip_code": "10017", "country": "US", "state": "NY", "display_address": ["306 E 46th St", "New York, NY 10017"]}, "phone": "+12128670874", "display_phone": "(212) 867-0874", "distance": 5572.160826301359}, {"id": "7rxg-tWPc1jK7Cikn5R86g", "alias": "hi-collar-new-york-2", "name": "Hi-Collar", "image_url": "https://s3-media1.fl.yelpcdn.com/bphoto/zAi8_rPGpdGc0V75NE1BSw/o.jpg", "is_closed": false, "url": "https://www.yelp.com/biz/hi-collar-new-york-2?adjust_creative=vRqJPoybBmrapOJofP44Nw&utm_campaign=yelp_api_v3&utm_medium=api_v3_business_search&utm_source=vRqJPoybBmrapOJofP44Nw", "review_count": 838, "categories": [{"alias": "japanese", "title": "Japanese"}, {"alias": "coffee", "title": "Coffee & Tea"}, {"alias": "bars", "title": "Bars"}], "rating": 4.0, "coordinates": {"latitude": 40.729564, "longitude": -73.98786}, "transactions": ["delivery", "pickup"], "price": "$$", "location": {"address1": "231 E 9th St", "address2": "", "address3": "", "city": "New York", "zip_code": "10003", "country": "US", "state": "NY", "display_address": ["231 E 9th St", "New York, NY 10003"]}, "phone": "+12127777018", "display_phone": "(212) 777-7018", "distance": 2736.177785571269}, {"id": "3paq_lNru7Dkdjg5q97UAw", "alias": "j-s-kitchen-new-york-new-york", "name": "J\u2019s Kitchen New York", "image_url": "https://s3-media1.fl.yelpcdn.com/bphoto/Ykz-pxQ5vfHWpIr3k2y-zw/o.jpg", "is_closed": false, "url": "https://www.yelp.com/biz/j-s-kitchen-new-york-new-york?adjust_creative=vRqJPoybBmrapOJofP44Nw&utm_campaign=yelp_api_v3&utm_medium=api_v3_business_search&utm_source=vRqJPoybBmrapOJofP44Nw", "review_count": 42, "categories": [{"alias": "japacurry", "title": "Japanese Curry"}, {"alias": "ramen", "title": "Ramen"}], "rating": 4.5, "coordinates": {"latitude": 40.73230536889889, "longitude": -73.98224600204243}, "transactions": ["delivery", "pickup"], "price": "$$", "location": {"address1": "261 First Ave", "address2": "", "address3": null, "city": "New York", "zip_code": "10003", "country": "US", "state": "NY", "display_address": ["261 First Ave", "New York, NY 10003"]}, "phone": "+19172620434", "display_phone": "(917) 262-0434", "distance": 3154.59968524199}, {"id": "qb4rPBexcQqmqsEhILKv3A", "alias": "konoha-yakitori-ramen-and-sushi-house-brooklyn", "name": "Konoha Yakitori Ramen and Sushi House", "image_url": "https://s3-media2.fl.yelpcdn.com/bphoto/E4oFhJIfIysdplcn0HqhYw/o.jpg", "is_closed": false, "url": "https://www.yelp.com/biz/konoha-yakitori-ramen-and-sushi-house-brooklyn?adjust_creative=vRqJPoybBmrapOJofP44Nw&utm_campaign=yelp_api_v3&utm_medium=api_v3_business_search&utm_source=vRqJPoybBmrapOJofP44Nw", "review_count": 10, "categories": [{"alias": "sushi", "title": "Sushi Bars"}, {"alias": "ramen", "title": "Ramen"}], "rating": 5.0, "coordinates": {"latitude": 40.674722, "longitude": -73.975758}, "transactions": ["delivery", "pickup"], "location": {"address1": "847B Union St", "address2": null, "address3": "", "city": "Brooklyn", "zip_code": "11217", "country": "US", "state": "NY", "display_address": ["847B Union St", "Brooklyn, NY 11217"]}, "phone": "+13474576280", "display_phone": "(347) 457-6280", "distance": 3756.581916167943}, {"id": "ipAsHykRvgJzpx5hD8vTJw", "alias": "tokuyamatcha-and-onigirazu-bar-new-york-3", "name": "Tokuyamatcha & Onigirazu Bar", "image_url": "https://s3-media1.fl.yelpcdn.com/bphoto/2ng7_jj2tYEHBIX21wkqQg/o.jpg", "is_closed": false, "url": "https://www.yelp.com/biz/tokuyamatcha-and-onigirazu-bar-new-york-3?adjust_creative=vRqJPoybBmrapOJofP44Nw&utm_campaign=yelp_api_v3&utm_medium=api_v3_business_search&utm_source=vRqJPoybBmrapOJofP44Nw", "review_count": 137, "categories": [{"alias": "coffee", "title": "Coffee & Tea"}, {"alias": "japanese", "title": "Japanese"}, {"alias": "sandwiches", "title": "Sandwiches"}], "rating": 4.2, "coordinates": {"latitude": 40.72399, "longitude": -73.9802}, "transactions": ["delivery", "pickup"], "price": "$$", "location": {"address1": "627 E 6th St", "address2": null, "address3": "", "city": "New York", "zip_code": "10009", "country": "US", "state": "NY", "display_address": ["627 E 6th St", "New York, NY 10009"]}, "phone": "+12123881276", "display_phone": "(212) 388-1276", "distance": 2383.746233733969}, {"id": "dCDpb-fz6Ton9AXLoaWIhA", "alias": "momoya-soho-new-york", "name": "Momoya SoHo", "image_url": "https://s3-media3.fl.yelpcdn.com/bphoto/bg4YfYzfkuM_s5G8rKgcaw/o.jpg", "is_closed": false, "url": "https://www.yelp.com/biz/momoya-soho-new-york?adjust_creative=vRqJPoybBmrapOJofP44Nw&utm_campaign=yelp_api_v3&utm_medium=api_v3_business_search&utm_source=vRqJPoybBmrapOJofP44Nw", "review_count": 251, "categories": [{"alias": "sushi", "title": "Sushi Bars"}], "rating": 4.1, "coordinates": {"latitude": 40.72349, "longitude": -73.99579}, "transactions": ["restaurant_reservation"], "price": "$$$", "location": {"address1": "47 Prince St", "address2": "", "address3": null, "city": "New York", "zip_code": "10012", "country": "US", "state": "NY", "display_address": ["47 Prince St", "New York, NY 10012"]}, "phone": "+16464299315", "display_phone": "(646) 429-9315", "distance": 2015.999510410484}, {"id": "7iY35991NhQ1AShJZCNZgA", "alias": "sakagura-new-york", "name": "Sakagura", "image_url": "https://s3-media4.fl.yelpcdn.com/bphoto/UTNso2U3VAiTXdDV98Jbzw/o.jpg", "is_closed": false, "url": "https://www.yelp.com/biz/sakagura-new-york?adjust_creative=vRqJPoybBmrapOJofP44Nw&utm_campaign=yelp_api_v3&utm_medium=api_v3_business_search&utm_source=vRqJPoybBmrapOJofP44Nw", "review_count": 1888, "categories": [{"alias": "japanese", "title": "Japanese"}], "rating": 4.2, "coordinates": {"latitude": 40.7516467024541, "longitude": -73.9729489318165}, "transactions": ["delivery"], "price": "$$$$", "location": {"address1": "211 E 43rd St", "address2": "", "address3": "", "city": "New York", "zip_code": "10017", "country": "US", "state": "NY", "display_address": ["211 E 43rd St", "New York, NY 10017"]}, "phone": "+12129537253", "display_phone": "(212) 953-7253", "distance": 5443.138436306642}]